,city,Street,ZIP,LAT,LON
238434,SANTA ROSA,6TH ST & WILSON ST,95401.0,38.43876378,-122.7216926
238661,SANTA ROSA,BOND ST & CONNIE ST,95407.0,38.40586434,-122.7100557
249914,SANTA ROSA,BENNETT VALLEY RD & RONNE DR,95404.0,38.43150375,-122.68053020000002
249915,SANTA ROSA,AIRWAY DR & INDUSTRIAL DR,95403.0,38.47686128,-122.7381217
249916,SANTA ROSA,HIDDEN VALLEY DR & INCLINE DR,95404.0,38.46825468,-122.69910390000001
249917,SANTA ROSA,SB STEELE LN OFFRAMP & SB STEELE LN ONRAMP & STEELE LN & W STEELE LN,95403.0,38.45993819,-122.7267705
249918,SANTA ROSA,FLOWER AVE & NEWHALL ST & PETALUMA HILL RD,95404.0,38.42473645,-122.7087034
249919,SANTA ROSA,BENNETT VALLEY RD & DE TURK AVE,95404.0,38.43137011,-122.70806520000001
249920,SANTA ROSA,KINGFISHER WAY & NORTHPOINT PKWY,95407.0,38.41627946,-122.7446749
249921,SANTA ROSA,JASPER LN & ONYX WAY,95404.0,38.41857738,-122.7020376
249922,SANTA ROSA,DUTTON AVE & SEBASTOPOL RD,95407.0,38.43059702,-122.7253189
249923,SANTA ROSA,GUERNEVILLE RD & RANGE AVE,95401.0,38.45884356,-122.7326085
249924,SANTA ROSA,7TH ST & MORGAN ST,95401.0,38.44106649,-122.72008590000002
249925,SANTA ROSA,CODDINGTOWN & GUERNEVILLE RD & STEELE WAY,95403.0,38.45938071,-122.73149309999998
249926,SANTA ROSA,CODDINGTOWN & GUERNEVILLE RD & STEELE WAY,95403.0,38.45938071,-122.73149309999998
249927,SANTA ROSA,MCBRIDE LN & TERRY LN,95403.0,38.4642155,-122.7302291
249928,SANTA ROSA,CLEVELAND AVE & GUERNEVILLE RD & W STEELE LN,95401.0,38.45991177,-122.7284087
249929,SANTA ROSA,CORBY AVE & SB HEARN AV OFFRAMP & SB HEARN AV ONRAMP,95407.0,38.41333341,-122.7171869
249930,SANTA ROSA,DUTTON AVE & OHAIR CT,95407.0,38.40381465,-122.7235254
249931,SANTA ROSA,CORNELL DR & MAYETTE AVE,95405.0,38.44109612,-122.67798370000001
249932,SANTA ROSA,4TH ST & CHINN ST,95404.0,38.44379613,-122.706748
249933,SANTA ROSA,PAULIN DR & VENTURA AVE,95403.0,38.46720043,-122.72433079999999
249934,SANTA ROSA,COPPERFIELD DR & SPENLOW RD,95401.0,38.4432815,-122.76424240000001
249935,SANTA ROSA,MCBRIDE LN & STATE FARM DR,95403.0,38.46623454,-122.73023130000001
249936,SANTA ROSA,1ST ST & A ST,95401.0,38.43701961,-122.7158571
249937,SANTA ROSA,SAN MIGUEL AVE & SAN MIGUEL PL,95403.0,38.47304327,-122.7652587
249938,SANTA ROSA,3RD ST & BROOKWOOD AVE,95404.0,38.442735299999995,-122.7066597
249939,SANTA ROSA,COLLEGE AVE & ORCHARD ST,95404.0,38.44554349,-122.71352350000001
249940,SANTA ROSA,COLLEGE AVE & TRACKS & W COLLEGE AVE,95401.0,38.44592197,-122.7283248
249941,SANTA ROSA,STONY CIR & STONY POINT RD & W 9TH ST,95401.0,38.440376799999996,-122.744635
249942,SANTA ROSA,BREEDEN ST & STARBUCK AVE,95409.0,38.46426095,-122.66929579999999
249943,SANTA ROSA,4TH ST & E ST,95404.0,38.4419527,-122.7107402
249944,SANTA ROSA,5TH ST & RILEY ST,95404.0,38.4414286,-122.71379180000001
249945,SANTA ROSA,6TH ST & DAVIS ST,95401.0,38.43932824,-122.72045349999999
249946,SANTA ROSA,D ST & SONOMA AVE,95404.0,38.43799433,-122.70998449999999
249947,SANTA ROSA,GUERNEVILLE RD & RANGE AVE,95401.0,38.45884356,-122.7326085
249948,SANTA ROSA,BARHAM AVE & BOYD ST,95407.0,38.4267074,-122.7186929
249949,SANTA ROSA,GUERNEVILLE RD & RANGE AVE,95401.0,38.45884356,-122.7326085
249950,SANTA ROSA,FULTON RD & PINER HIGH SCHOOL,95403.0,38.46172539,-122.7696703
249951,SANTA ROSA,CORBY AVE & SB HEARN AV OFFRAMP & SB HEARN AV ONRAMP,95407.0,38.41333341,-122.7171869
249952,SANTA ROSA,BROOKWOOD AVE & SONOMA AVE,95404.0,38.44036347,-122.70283090000001
249953,SANTA ROSA,4TH ST & OLD COURTHOUSE SQ,95401.0,38.44023055,-122.7145525
249954,SANTA ROSA,COFFEY LN & W STEELE LN,95403.0,38.45998229,-122.7403416
249955,SANTA ROSA,MISSION BLVD & MONTGOMERY DR,95409.0,38.45730241,-122.6712994
249956,SANTA ROSA,CHADWICK CT & CHADWICK PL & W 3RD ST,95401.0,38.43490912,-122.74972220000001
249957,SANTA ROSA,ELMWOOD TER & MOSSWOOD LN,95401.0,38.43438716,-122.7412331
249958,SANTA ROSA,DOYLE PARK DR & SONOMA AVE,95405.0,38.44162603,-122.6982486
249959,SANTA ROSA,1ST ST & SANTA ROSA AVE,95404.0,38.43827333,-122.71251090000001
249960,SANTA ROSA,GUERNEVILLE RD & RANGE AVE,95401.0,38.45884356,-122.7326085
249961,SANTA ROSA,BROOKWOOD AVE & SONOMA AVE,95404.0,38.44036347,-122.70283090000001
249962,SANTA ROSA,CRAWFORD CT & MENDOCINO AVE,95401.0,38.4515494,-122.7174904
249963,SANTA ROSA,DUTTON AVE & OHAIR CT,95407.0,38.40381465,-122.7235254
249964,SANTA ROSA,MENDOCINO AVE & SILVA AVE,95401.0,38.45880608,-122.717197
249965,SANTA ROSA,KAREN WAY & VALLEJO ST,95404.0,38.4384119,-122.6968065
249966,SANTA ROSA,N DUTTON AVE & TESCONI CIR,95401.0,38.448475,-122.732201
249967,SANTA ROSA,ATHENA PL & CONNIE ST,95407.0,38.40586223,-122.7108523
249968,SANTA ROSA,KAREN WAY & VALLEJO ST,95404.0,38.4384119,-122.6968065
249969,SANTA ROSA,7TH ST & MORGAN ST,95401.0,38.44106649,-122.72008590000002
249970,SANTA ROSA,ADMINISTRATION DR & FISCAL DR,95403.0,38.465419,-122.726303
249971,SANTA ROSA,COLLEGE AVE & SB COLLEGE AV OFFRAMP & SB COLLEGE AV ONRAMP,95401.0,38.44583528,-122.7245675
249972,SANTA ROSA,CHATEAU CT & VINTAGE CIR,95404.0,38.48774469,-122.7079779
249973,SANTA ROSA,FRANCISCO AVE & SUNLIT ANN DR,95403.0,38.47088279,-122.76062379999999
249974,SANTA ROSA,CHILDRENS CIR & RANCHO LOS GUILICOS RD,95409.0,38.44024639,-122.5825606
249975,SANTA ROSA,3RD ST & OLD COURTHOUSE SQ,95404.0,38.43991081,-122.7128433
249976,SANTA ROSA,7TH ST & A ST,95401.0,38.4414495,-122.7190885
249977,SANTA ROSA,PARKSIDE DR & VALLEJO ST,95404.0,38.43838699,-122.6976498
249978,SANTA ROSA,HOEN AVE & MORRIS CT,95405.0,38.44574276,-122.652634
249979,SANTA ROSA,LINCOLN ST & MORGAN ST,95401.0,38.44490192,-122.72260390000001
249980,SANTA ROSA,BROOKWOOD AVE & SONOMA AVE,95404.0,38.44036347,-122.70283090000001
249981,SANTA ROSA,5TH ST & BROOKWOOD AVE,95404.0,38.44431337,-122.70773290000001
249982,SANTA ROSA,BECKY CT & COFFEY LN,95403.0,38.46233298,-122.7417378
249983,SANTA ROSA,DUTTON AVE & SEBASTOPOL RD,95407.0,38.43059702,-122.7253189
249984,SANTA ROSA,MONTECITO AVE & RIDGEVIEW DR,95404.0,38.45937407,-122.69746059999999
249985,SANTA ROSA,NORTHCOAST ST & W STEELE LN,95403.0,38.4598705,-122.74150900000001
249986,SANTA ROSA,HALLIN DR & MONTGOMERY DR,95409.0,38.46030249,-122.66597340000001
249987,SANTA ROSA,BROOKWOOD AVE & SONOMA AVE,95404.0,38.44036347,-122.70283090000001
249988,SANTA ROSA,NAVARRO ST & W COLLEGE AVE,95401.0,38.44524539,-122.75437520000001
249989,SANTA ROSA,S E ST & TUPPER ST,95404.0,38.43723872,-122.70664579999999
249990,SANTA ROSA,ALTON LN & FULTON RD,95403.0,38.47445743,-122.76979240000001
249991,SANTA ROSA,CORAL LN & FENWICK DR,95401.0,38.43606599,-122.7451718
249992,SANTA ROSA,MCBRIDE LN & TERRY LN,95403.0,38.4642155,-122.7302291
249993,SANTA ROSA,CORPORATE CENTER PKWY & SEBASTOPOL RD,95407.0,38.42592609,-122.75336850000001
249994,SANTA ROSA,7TH ST & MORGAN ST,95401.0,38.44106649,-122.72008590000002
249995,SANTA ROSA,HENDLEY ST & OAK ST,95404.0,38.4329544,-122.70603090000002
249996,SANTA ROSA,SACRAMENTO AVE & SANTA FE DR,95405.0,38.43587144,-122.66981770000001
249997,SANTA ROSA,HENDLEY ST & WHEELER ST,95404.0,38.43519318,-122.70728030000001
249998,SANTA ROSA,FOUNTAINGROVE PKWY & MENDOCINO AVE & MENDOCINO OV,95403.0,38.47471494,-122.7286683
249999,SANTA ROSA,COLLEGE AVE & E ST & KING ST,95404.0,38.44546397,-122.71089909999999
250000,SANTA ROSA,GUERNEVILLE RD & N DUTTON AVE & WESTBERRY DR,95401.0,38.45546474,-122.7379425
250001,SANTA ROSA,CARA DR & MIDDLE RINCON RD & REDWOOD CT,95409.0,38.47473016,-122.6717504
250002,SANTA ROSA,KOHLER CT & VALLEJO ST,95404.0,38.43675357,-122.70401770000001
250003,SANTA ROSA,BOCK ST & SUNLIT ANN DR & WALTZER RD,95403.0,38.47218833,-122.7563165
250004,SANTA ROSA,CLARE AVE & NONIE ST,95403.0,38.47293712,-122.7344301
250005,SANTA ROSA,COFFEY LN & W STEELE LN,95403.0,38.45998229,-122.7403416
250006,SANTA ROSA,OLDFIELD WAY & WALL PL,95401.0,38.43294769,-122.7445656
250007,SANTA ROSA,BROWN ST & MILL ST,95404.0,38.43416699,-122.70928390000002
250008,SANTA ROSA,PARKVIEW DR & SHADYBROOK CT,95409.0,38.47929434,-122.6577925
250009,SANTA ROSA,4TH ST & D ST,95404.0,38.44121202,-122.7123828
250010,SANTA ROSA,CHARLES ST & SANTA ROSA AVE,95404.0,38.43535628,-122.7120801
250011,SANTA ROSA,MAXWELL DR & W COLLEGE AVE,95401.0,38.44583859,-122.72975729999999
250012,SANTA ROSA,CHARLES ST & SANTA ROSA AVE,95404.0,38.43535628,-122.7120801
250013,SANTA ROSA,7TH ST & WILSON ST,95401.0,38.4394771,-122.72221869999998
250014,SANTA ROSA,MCBRIDE LN & W STEELE LN,95403.0,38.45998549,-122.7302449
250015,SANTA ROSA,ANDY WAY & GUNTHER LN,95404.0,38.47250672,-122.71009380000001
250016,SANTA ROSA,DE TURK AVE & MILTON ST,95404.0,38.42706919,-122.7055725
250017,SANTA ROSA,GREEN WAY & SOLANO DR,95404.0,38.43670592,-122.6950537
250018,SANTA ROSA,COLGAN AVE & PETALUMA HILL RD,95404.0,38.42291731,-122.70760179999999
250019,SANTA ROSA,CHARLES ST & SANTA ROSA AVE,95404.0,38.43535628,-122.7120801
250020,SANTA ROSA,HAHMAN DR & SONOMA AVE,95405.0,38.44507274,-122.6856783
250021,SANTA ROSA,BAY VILLAGE AVE & BAY VILLAGE CIR & MARLOW RD,95403.0,38.46563068,-122.7512033
250022,SANTA ROSA,BROOKWOOD AVE & SONOMA AVE,95404.0,38.44036347,-122.70283090000001
250023,SANTA ROSA,RIDGEVIEW DR & ZIEBER RD,95404.0,38.46444884,-122.69733559999999
250024,SANTA ROSA,7TH ST & B ST,95401.0,38.44197802,-122.71732620000002
250025,SANTA ROSA,LOMBARDI CT & LOMBARDI LN & SEBASTOPOL RD,95407.0,38.42631489,-122.7483847
250026,SANTA ROSA,ATLANTA CT & HOEN AVE,95405.0,38.43789585,-122.6762431
250027,SANTA ROSA,OLIVE ST & POPLAR ST,95407.0,38.42604873,-122.7169398
250028,SANTA ROSA,ATLANTA CT & HOEN AVE,95405.0,38.43789585,-122.6762431
250029,SANTA ROSA,BROOKWOOD AVE & SONOMA AVE,95404.0,38.44036347,-122.70283090000001
250030,SANTA ROSA,ATLANTA CT & HOEN AVE,95405.0,38.43789585,-122.6762431
250031,SANTA ROSA,ATLANTA CT & HOEN AVE,95405.0,38.43789585,-122.6762431
250032,SANTA ROSA,LA MAR WAY & LUCERO CT,95405.0,38.42169999,-122.6688328
250033,SANTA ROSA,DAWSON RD & MENDOCINO AVE,95403.0,38.47297747,-122.72614070000002
250034,SANTA ROSA,CYPRESS WAY & HOEN AVE & HOEN AVE FRONTAGE RD,95405.0,38.43757522,-122.68170490000001
250035,SANTA ROSA,ROWE DR & STEELE LN,95401.0,38.46081666,-122.71832040000001
250036,SANTA ROSA,NEOTOMAS AVE & WAWONA CT & WAWONA DR,95405.0,38.42867803,-122.6701338
250037,SANTA ROSA,KAREN WAY & VALLEJO ST,95404.0,38.4384119,-122.6968065
250038,SANTA ROSA,HARVEST LN & W 3RD ST,95401.0,38.43436204,-122.74808909999999
250039,SANTA ROSA,LAKE VIEW DR & YULUPA AVE,95405.0,38.42153429,-122.66453600000001
250040,SANTA ROSA,3RD ST & E ST,95404.0,38.44114633,-122.71012549999999
250041,SANTA ROSA,BETHARDS DR & TACHEVAH DR,95405.0,38.42823724,-122.6639304
250042,SANTA ROSA,BILLIE JEAN ST & MARTINA AVE,95407.0,38.42697318,-122.76163249999999
250043,SANTA ROSA,BETHARDS DR & TACHEVAH DR,95405.0,38.42823724,-122.6639304
250044,SANTA ROSA,FARMERS LN & HOEN AVE FRONTAGE RD & HWY 12 E,95405.0,38.43516241,-122.68761950000001
250045,SANTA ROSA,BAY VILLAGE AVE & BAY VILLAGE CIR & MARLOW RD,95403.0,38.46563068,-122.7512033
250046,SANTA ROSA,GUERNEVILLE RD & RANGE AVE,95401.0,38.45884356,-122.7326085
250047,SANTA ROSA,ROBERTS AVE & SEBASTOPOL RD,95407.0,38.43118849,-122.72284590000001
250048,SANTA ROSA,POLK ST & W 7TH ST,95401.0,38.43735184,-122.7269635
250049,SANTA ROSA,MORTON WAY & SOLANO DR,95404.0,38.43693601,-122.6943395
250050,SANTA ROSA,FOUNTAINGROVE PKWY & MENDOCINO AVE & MENDOCINO OV,95403.0,38.47471494,-122.7286683
250051,SANTA ROSA,CLEVELAND AVE & COLLEGE AVE,95401.0,38.44589407,-122.726646
250052,SANTA ROSA,SEBASTOPOL RD & WEST AVE,95407.0,38.42978491,-122.72890819999999
250053,SANTA ROSA,QUARTZ DR & STONE CASTLE LN,95405.0,38.45041749,-122.66198829999999
250054,SANTA ROSA,LAZZINI AVE & TROMBETTA ST,95407.0,38.42202728,-122.7383565
250055,SANTA ROSA,FREDERICK ST & JENNINGS AVE,95401.0,38.44963917,-122.74879320000001
250056,SANTA ROSA,HWY 12 & MISSION BLVD,95409.0,38.45873641,-122.67438670000001
250057,SANTA ROSA,HARDIES LN & SNOOPY PL,95403.0,38.4624214,-122.7350827
250058,SANTA ROSA,MEADOW GREEN PL & STONE BRIDGE RD & STONECROFT TER,95409.0,38.44434576,-122.61172079999999
250059,SANTA ROSA,MEADOW GREEN PL & STONE BRIDGE RD & STONECROFT TER,95409.0,38.44434576,-122.61172079999999
250060,SANTA ROSA,MENDOCINO AVE & RUSSELL AVE,95403.0,38.46923636,-122.72199540000001
250061,SANTA ROSA,COLLEGE AVE & HUMBOLDT ST,95404.0,38.44557246,-122.714771
250062,SANTA ROSA,SAN MIGUEL AVE & SAN MIGUEL PL,95403.0,38.47304327,-122.7652587
250063,SANTA ROSA,PUTNEY DR & TRUCKEE DR,95401.0,38.444775799999995,-122.75850120000001
250064,SANTA ROSA,COFFEY LN & GUERNEVILLE RD & HERBERT LN,95403.0,38.45651115,-122.7362721
250065,SANTA ROSA,BEAR CUB WAY & MENDOCINO AVE & PACIFIC AVE,95401.0,38.45336896,-122.717404
250066,SANTA ROSA,MCBRIDE LN & W STEELE LN,95403.0,38.45998549,-122.7302449
250067,SANTA ROSA,BETHARDS DR & YULUPA AVE,95405.0,38.42608214,-122.66683090000001
250068,SANTA ROSA,HADLEY HILL DR & NEWBURY CT,95404.0,38.48044942,-122.6937101
250069,SANTA ROSA,FAIRBANKS DR & HALLMARK CT,95403.0,38.45366688,-122.76160130000001
250070,SANTA ROSA,KOWELL RD & W COLLEGE AVE,95401.0,38.44530267,-122.7426611
250071,LARKFIELD,LAVELL RD & MARK WEST SPRINGS RD,95403.0,38.49636772,-122.75186049999999
250072,SANTA ROSA,CHESTNUT ST & HAZEL ST,95401.0,38.43379235,-122.72040009999999
250073,SANTA ROSA,PINER RD & WALTZER RD,95403.0,38.46714529,-122.7562925
250074,SANTA ROSA,SEBASTOPOL RD & WEST AVE,95407.0,38.42978491,-122.72890819999999
250075,SANTA ROSA,KINGWOOD ST & N DUTTON AVE,95401.0,38.44447398,-122.7305423
250076,SANTA ROSA,BROOKWOOD AVE & SONOMA AVE,95404.0,38.44036347,-122.70283090000001
250077,SANTA ROSA,COMMERCIAL CT & SANTA ROSA AVE,95407.0,38.41763017,-122.71351940000001
250078,SANTA ROSA,CENTRAL AVE & RIDGWAY AVE,95401.0,38.44875168,-122.72771440000001
250079,SANTA ROSA,AIRWAY DR & CENTER DR,95403.0,38.47399546,-122.738114
250080,SANTA ROSA,LEAFWOOD CIR E & LEAFWOOD CIR W & SILVERWOOD ST,95405.0,38.436837,-122.661428
250081,SANTA ROSA,15TH ST & SPRING ST,95404.0,38.44918661,-122.70264009999998
250082,SANTA ROSA,2ND ST & SANTA ROSA AVE,95404.0,38.43903444,-122.71295049999999
250083,SANTA ROSA,4TH ST & MENDOCINO AVE & SANTA ROSA AVE,95404.0,38.44046206,-122.7140115
250084,SANTA ROSA,CACTUS AVE & YUCCA ST,95405.0,38.42546158,-122.6692824
250085,SANTA ROSA,COURT ST & SANTA ROSA AVE,95407.0,38.40676337,-122.71348689999999
250086,SANTA ROSA,BUCKINGHAM DR & ORANGE ST,95401.0,38.4346687,-122.71825890000001
250087,SANTA ROSA,SENNA DR & W 3RD ST,95401.0,38.4379375,-122.7615328
250088,SANTA ROSA,BROOKWOOD AVE & SONOMA AVE,95404.0,38.44036347,-122.70283090000001
250089,SANTA ROSA,GREENEICH AVE & MARLOW RD & ZINFANDEL AVE,95401.0,38.45045002,-122.75132109999998
250090,SANTA ROSA,S E ST & TUPPER ST,95404.0,38.43723872,-122.70664579999999
250091,SANTA ROSA,4TH ST & B ST,95401.0,38.43971531,-122.71565840000001
250092,SANTA ROSA,LAKE VIEW DR & YULUPA AVE,95405.0,38.42153429,-122.66453600000001
250093,SANTA ROSA,MONTGOMERY DR & SHADOW LN & SUMMERFIELD RD,95405.0,38.45496838,-122.6721729
250094,SANTA ROSA,GUERNEVILLE RD & RANGE AVE,95401.0,38.45884356,-122.7326085
250095,SANTA ROSA,4TH ST & FARMERS LN & HWY 12,95405.0,38.44972,-122.68848009999999
250096,SANTA ROSA,FLOWER AVE & NEWHALL ST & PETALUMA HILL RD,95404.0,38.42473645,-122.7087034
250097,SANTA ROSA,STONY POINT PLZ & STONY POINT RD,95407.0,38.42866101,-122.74153390000002
250098,SANTA ROSA,COFFEY LN & GUERNEVILLE RD & HERBERT LN,95403.0,38.45651115,-122.7362721
250099,SANTA ROSA,CLEMENT AVE & MENDOCINO AVE,95401.0,38.45909335,-122.71717520000001
250100,SANTA ROSA,HWY 12 & MELITA RD,95409.0,38.46482899,-122.65142639999999
250101,SANTA ROSA,HACIENDA DR & LURLINE WAY,95405.0,38.45139743,-122.67436140000001
250102,SANTA ROSA,METAXA CT & WEST AVE,95407.0,38.41679584,-122.72728629999999
250103,SANTA ROSA,OCCIDENTAL RD & SAN FERNANDO WAY,95401.0,38.42860441,-122.7668037
250104,SANTA ROSA,BROOKWOOD AVE & SONOMA AVE,95404.0,38.44036347,-122.70283090000001
250105,SANTA ROSA,OLDFIELD WAY & WALL PL,95401.0,38.43294769,-122.7445656
250106,SANTA ROSA,RICHMOND DR & SALEM AVE,95401.0,38.45956577,-122.7190646
250107,SANTA ROSA,GLORIA DR & VANDERFORD DR,95407.0,38.415349799999994,-122.7219256
250108,SANTA ROSA,BROOKSIDE DR & CODDING DR,95405.0,38.44128863,-122.69481509999999
250109,SANTA ROSA,LINCOLN ST & MORGAN ST,95401.0,38.44490192,-122.72260390000001
250110,SANTA ROSA,RANGE AVE & W STEELE LN,95403.0,38.45997358,-122.73261799999999
250111,SANTA ROSA,LURLINE WAY & SANDRA WAY,95405.0,38.45154549,-122.67155420000002
250112,SANTA ROSA,RICHMOND DR & SALEM AVE,95401.0,38.45956577,-122.7190646
250113,SANTA ROSA,NORDYKE AVE & YOUNG DR,95403.0,38.46146828,-122.72371299999999
250114,SANTA ROSA,4TH ST & B ST,95401.0,38.43971531,-122.71565840000001
250115,SANTA ROSA,CALISTOGA RD & HWY 12,95409.0,38.4649157,-122.6533696
250116,SANTA ROSA,SEBASTOPOL RD & WEST AVE,95407.0,38.42978491,-122.72890819999999
250117,SANTA ROSA,6TH ST & MORGAN ST & NB SR DOWNTOWN ONRAMP,95401.0,38.43992913,-122.7193773
250118,SANTA ROSA,BREEDEN ST & STARBUCK AVE,95409.0,38.46426095,-122.66929579999999
250119,SANTA ROSA,FULTON RD & HALL RD & W 3RD ST,95401.0,38.4380231,-122.77030900000001
250120,SANTA ROSA,1ST ST & A ST,95401.0,38.43701961,-122.7158571
250121,SANTA ROSA,COLLEGE AVE & GLENN ST,95401.0,38.44572374,-122.72041010000001
250122,SANTA ROSA,RIESLING WAY & ZINFANDEL AVE,95403.0,38.45105202,-122.75622709999999
250123,SANTA ROSA,MCBRIDE LN & W STEELE LN,95403.0,38.45998549,-122.7302449
250124,SANTA ROSA,CHIANTI DR & ZINFANDEL AVE,95403.0,38.45063622,-122.7551365
250125,SANTA ROSA,BELLEVUE AVE & TERRIMAY LN,95407.0,38.40172352,-122.71088229999998
250126,SANTA ROSA,RIESLING WAY & ZINFANDEL AVE,95403.0,38.45105202,-122.75622709999999
250127,SANTA ROSA,HWY 12 & MELITA RD,95409.0,38.46482899,-122.65142639999999
250128,SANTA ROSA,CORBY AVE & COTTONWOOD DR,95407.0,38.4171506,-122.7175098
250129,SANTA ROSA,RIESLING WAY & ZINFANDEL AVE,95403.0,38.45105202,-122.75622709999999
250130,SANTA ROSA,HOEN AVE & MORRIS CT,95405.0,38.44574276,-122.652634
250131,SANTA ROSA,EL ENCANTO DR & SAINT FRANCIS RD,95409.0,38.46833842,-122.64673909999998
250132,SANTA ROSA,BELLEVUE AVE & CORBY AVE,95407.0,38.40195457,-122.71710420000001
250133,SANTA ROSA,CHIANTI DR & ZINFANDEL AVE,95403.0,38.45063622,-122.7551365
250134,SANTA ROSA,BAIRD RD & RICK DR,95409.0,38.47816644,-122.66745729999998
250135,SANTA ROSA,NYLA PL & SIKES CT,95401.0,38.448648,-122.75248219999999
250136,SANTA ROSA,MISSION BLVD & YUKON DR,95409.0,38.46754183,-122.6767908
250137,SANTA ROSA,5TH ST & WILSON ST,95401.0,38.43805776,-122.7211803
250138,SANTA ROSA,MCBRIDE LN & TERRY LN,95403.0,38.4642155,-122.7302291
250139,SANTA ROSA,KAREN WAY & VALLEJO ST,95404.0,38.4384119,-122.6968065
250140,SANTA ROSA,GUERNEVILLE RD & RIDLEY AVE,95401.0,38.45259224,-122.74625209999999
250141,SANTA ROSA,GUERNEVILLE RD & MARLOW RD,95403.0,38.45258756,-122.7513351
250142,SANTA ROSA,SEBASTOPOL RD & STONY POINT RD,95407.0,38.42685471,-122.7413163
250143,SANTA ROSA,HOEN AVE & TAHOE DR,95405.0,38.44025773,-122.66958190000001
250144,SANTA ROSA,BURBANK AVE & SEBASTOPOL RD,95407.0,38.42824412,-122.7353723
250145,SANTA ROSA,GLORIA DR & VANDERFORD DR,95407.0,38.415349799999994,-122.7219256
250146,SANTA ROSA,CYPRESS WAY & HOEN AVE,95405.0,38.43804302,-122.6758185
250147,SANTA ROSA,HOEN AVE & YULUPA AVE,95405.0,38.43955238,-122.67158059999998
250148,SANTA ROSA,CORBY AVE & SB HEARN AV OFFRAMP & SB HEARN AV ONRAMP,95407.0,38.41333341,-122.7171869
250149,SANTA ROSA,CORBY AVE & PEACH CT & PEACH ST,95407.0,38.42394960000001,-122.7174501
250150,SANTA ROSA,FALLGREEN CT & LAUREL LEAF PL,95409.0,38.439705700000005,-122.6016264
250151,SANTA ROSA,OLIVE ST & SEBASTOPOL RD,95407.0,38.432080299999996,-122.7190497
250152,SANTA ROSA,MIDWAY DR & SONOMA AVE,95405.0,38.44308547,-122.6929146
250153,SANTA ROSA,7TH ST & WILSON ST,95401.0,38.4394771,-122.72221869999998
250154,SANTA ROSA,CHEROKEE AVE & CHEROKEE CT,95403.0,38.46483701,-122.74657009999999
250155,SANTA ROSA,BAY VILLAGE CIR & PINER RD,95403.0,38.46731621,-122.74864280000001
250156,SANTA ROSA,SPARROW CREEK ST & W COLLEGE AVE,95401.0,38.44521652,-122.74903090000001
250157,SANTA ROSA,LANCE DR & NORTHCOAST ST,95403.0,38.45503674,-122.74110220000001
250158,SANTA ROSA,SEBASTOPOL RD & STONY POINT RD,95407.0,38.42685471,-122.7413163
250159,SANTA ROSA,MENDOCINO AVE & SCHURMAN DR,95403.0,38.46311909,-122.7182737
250160,SANTA ROSA,OCCIDENTAL RD & STONY POINT RD & WB STONY POINT RD OFFRAMP & WB STONY POINT RD ONRAMP,95401.0,38.43182581,-122.7419237
250161,SANTA ROSA,ELLIOTT AVE & MENDOCINO AVE,95401.0,38.45761166,-122.71725009999999
250162,SANTA ROSA,NORTHCOAST ST & TOLAR AVE,95403.0,38.4565141,-122.7411455
250163,SANTA ROSA,4TH ST & MENDOCINO AVE & SANTA ROSA AVE,95404.0,38.44046206,-122.7140115
250164,SANTA ROSA,JENNINGS AVE & N DUTTON AVE,95401.0,38.45214413,-122.7352503
250165,SANTA ROSA,COLGAN AVE & PETALUMA HILL RD,95404.0,38.42291731,-122.70760179999999
250166,SANTA ROSA,LOMITAS AVE & PLUM DR,95404.0,38.46578596,-122.7164578
250167,SANTA ROSA,MISSION BLVD & MISSION CIR & QUIGG DR,95409.0,38.45803531,-122.6729237
250168,SANTA ROSA,COFFEY LN & PINER RD,95403.0,38.46873386,-122.74485390000001
250169,SANTA ROSA,ALTRURIA DR & KELSEY KNLS,95403.0,38.47704733,-122.7150398
250170,SANTA ROSA,HWY 12 & MELITA RD,95409.0,38.45594683,-122.62796540000001
250171,SANTA ROSA,ROCKWELL PL & W 9TH ST,95401.0,38.44167409,-122.73524099999999
250172,SANTA ROSA,FRAZIER AVE & GRAND AVE,95404.0,38.42757228,-122.7073644
250173,SANTA ROSA,FARMERS LN & NEOTOMAS AVE,95405.0,38.43402241,-122.68804750000001
250174,SANTA ROSA,CLEVELAND AVE & TERRY LN,95403.0,38.46421777,-122.72841559999999
250175,SANTA ROSA,CARDINAL WAY & HWY 12,95409.0,38.46078101,-122.67118190000001
250176,SANTA ROSA,9TH ST & CLEVELAND AVE & WILSON ST,95401.0,38.44198325,-122.72407240000001
250177,SANTA ROSA,CLEVELAND AVE & GUERNEVILLE RD & W STEELE LN,95401.0,38.45991177,-122.7284087
250178,SANTA ROSA,APOLLO WAY & MERCURY WAY,95407.0,38.42184823,-122.74937479999998
250179,SANTA ROSA,HENDLEY ST & RAE ST,95404.0,38.43758856,-122.70864420000001
250180,SANTA ROSA,BROOKWOOD AVE & SONOMA AVE,95404.0,38.44036347,-122.70283090000001
250181,SANTA ROSA,GAREFFA WAY & GLENBROOK DR,95401.0,38.4371594,-122.74624920000001
250182,SANTA ROSA,GREENEICH AVE & MARLOW RD & ZINFANDEL AVE,95401.0,38.45045002,-122.75132109999998
250183,SANTA ROSA,COLGAN AVE & PETALUMA HILL RD,95404.0,38.42291731,-122.70760179999999
250184,SANTA ROSA,HWY 12 & JAVA ST,95409.0,38.46315826,-122.66747439999999
250185,SANTA ROSA,TOKAY ST & TURQUOISE WAY,95404.0,38.42010182,-122.7008037
250186,SANTA ROSA,FOUNTAINGROVE PKWY & MENDOCINO AVE & MENDOCINO OV,95403.0,38.47471494,-122.7286683
250187,SANTA ROSA,LAKE VIEW DR & YULUPA AVE,95405.0,38.419969,-122.664693
250188,SANTA ROSA,CHANATE RD & HOSPITAL,95404.0,38.46840455,-122.70757859999999
250189,SANTA ROSA,BROOKWOOD AVE & SONOMA AVE,95404.0,38.44036347,-122.70283090000001
250190,SANTA ROSA,HOEN AVE & MORRIS CT,95405.0,38.44574276,-122.652634
250191,SANTA ROSA,SB STEELE LN OFFRAMP & SB STEELE LN ONRAMP & STEELE LN & W STEELE LN,95403.0,38.45993819,-122.7267705
250192,SANTA ROSA,ASHWOOD DR & WHITEWOOD DR,95407.0,38.41845752,-122.7203524
250193,SANTA ROSA,HOGREFE WAY & IRON HORSE LN & TORZELLI LN,95407.0,38.42435195,-122.72323770000001
250194,SANTA ROSA,5TH ST & B ST,95401.0,38.44038228,-122.7161508
250195,SANTA ROSA,SEBASTOPOL RD & WEST AVE,95407.0,38.42978491,-122.72890819999999
250196,SANTA ROSA,CROSS CREEK CIR & CROSS CREEK RD,95403.0,38.49575526,-122.71320320000001
250197,SANTA ROSA,1ST ST & A ST,95401.0,38.43701961,-122.7158571
250198,SANTA ROSA,4TH ST & TALBOT AVE,95404.0,38.44750245,-122.70091869999999
250199,SANTA ROSA,KAWANA SPRINGS RD & PETALUMA HILL RD,95404.0,38.41649031,-122.70427279999998
250200,SANTA ROSA,ACACIA LN & QUIGG DR,95409.0,38.46132246,-122.6679426
250201,SANTA ROSA,CLEVELAND AVE & GUERNEVILLE RD & W STEELE LN,95401.0,38.45991177,-122.7284087
250202,SANTA ROSA,BRIDLE TRL & JACKSON DR,95409.0,38.45912349,-122.6654241
250203,SANTA ROSA,LAKE VIEW DR & YULUPA AVE,95405.0,38.42153429,-122.66453600000001
250204,SANTA ROSA,BLUEBELL DR & COFFEY LN,95403.0,38.46662813,-122.7430045
250205,SANTA ROSA,CAMPOY ST & SEBASTOPOL RD,95407.0,38.42519351,-122.7635252
250206,SANTA ROSA,CLEVELAND AVE & GUERNEVILLE RD & W STEELE LN,95401.0,38.45991177,-122.7284087
250207,SANTA ROSA,GUERNEVILLE RD & MARLOW RD,95403.0,38.45258756,-122.7513351
250208,SANTA ROSA,FRANQUETTE AVE & MAGOWAN DR,95405.0,38.44674515,-122.6822571
250209,SANTA ROSA,BURBANK AVE & HUGHES AVE,95407.0,38.42518899,-122.7349966
250210,SANTA ROSA,GUERNEVILLE RD & PETERSON LN,95403.0,38.45255814,-122.76447749999998
250211,SANTA ROSA,N DUTTON AVE & W COLLEGE AVE,95401.0,38.44581039,-122.7304284
250212,SANTA ROSA,EDWARDS AVE & RACCOON LN,95401.0,38.455409499999995,-122.72817260000001
250213,SANTA ROSA,1ST ST & A ST,95401.0,38.43701961,-122.7158571
250214,SANTA ROSA,FULTON RD & GUERNEVILLE RD,95403.0,38.45254856,-122.7696375
250215,SANTA ROSA,COLLEGE AVE & SB COLLEGE AV OFFRAMP & SB COLLEGE AV ONRAMP,95401.0,38.44583528,-122.7245675
250216,SANTA ROSA,MENDOCINO AVE & SPENCER AVE,95401.0,38.4507052,-122.7175146
250217,SANTA ROSA,FULTON RD & QUAIL HOLLOW DR,95403.0,38.46376246,-122.7696967
250218,SANTA ROSA,SAN LUIS AVE & SAN LUIS PL,95409.0,38.47523047,-122.6535304
250219,SANTA ROSA,DORRIT AVE & PINER CREEK DR & W COLLEGE AVE,95401.0,38.4453183,-122.76332409999999
250220,SANTA ROSA,CLEVELAND AVE & EDWARDS AVE,95401.0,38.45576138,-122.7264186
250221,SANTA ROSA,ARROWHEAD DR & HEARN AVE,95407.0,38.41259774,-122.7380221
250222,SANTA ROSA,BOSLEY ST & S A ST,95401.0,38.43138573,-122.71340520000001
250223,SANTA ROSA,KAWANA SPRINGS RD & MEADOW WAY,95404.0,38.41646107,-122.70881059999999
250224,SANTA ROSA,CORPORATE CENTER PKWY & SEBASTOPOL RD,95407.0,38.42592609,-122.75336850000001
250225,SANTA ROSA,16TH ST & SAINT HELENA AVE,95404.0,38.45014328,-122.7012509
250226,SANTA ROSA,BURBANK CIR & ELLIOTT AVE,95401.0,38.45758929,-122.7178531
250227,SANTA ROSA,CORPORATE CENTER PKWY & SEBASTOPOL RD,95407.0,38.42592609,-122.75336850000001
250228,SANTA ROSA,LEWIS RD & SLATER ST,95404.0,38.46170103,-122.7151804
250229,SANTA ROSA,GAMAY ST & MILLWOOD CT,95403.0,38.45460884,-122.7566801
250230,SANTA ROSA,LAKE VIEW DR & YULUPA AVE,95405.0,38.42153429,-122.66453600000001
250231,SANTA ROSA,SB STEELE LN OFFRAMP & SB STEELE LN ONRAMP & STEELE LN & W STEELE LN,95403.0,38.45993819,-122.7267705
250232,SANTA ROSA,AIRWAY DR & INDUSTRIAL DR,95403.0,38.47686128,-122.7381217
250233,SANTA ROSA,DONAHUE AVE & LEMUR ST,95401.0,38.43070629,-122.7637387
250234,SANTA ROSA,SEBASTOPOL RD & STONY POINT RD,95407.0,38.42685471,-122.7413163
250235,SANTA ROSA,SUNSET AVE & WEST AVE,95407.0,38.42750512,-122.7286485
250236,SANTA ROSA,BOSLEY ST & SEBASTOPOL AVE,95401.0,38.4333222,-122.7138068
250237,SANTA ROSA,GUERNEVILLE RD & N DUTTON AVE & WESTBERRY DR,95401.0,38.45546474,-122.7379425
250238,SANTA ROSA,MILICENT WAY & SANTA ROSA AVE,95407.0,38.42030020000001,-122.71351090000002
250239,SANTA ROSA,DUPONT DR & GROVE AVE,95409.0,38.46936264,-122.6529764
250240,SANTA ROSA,DUPONT DR & GROVE AVE,95409.0,38.46936264,-122.6529764
250241,SANTA ROSA,CORBY AVE & SB HEARN AV OFFRAMP & SB HEARN AV ONRAMP,95407.0,38.41333341,-122.7171869
250242,SANTA ROSA,GLENBROOK DR & WESTBROOK DR,95401.0,38.43700831,-122.7403962
250243,SANTA ROSA,SEBASTOPOL RD & STONY POINT RD,95407.0,38.42685471,-122.7413163
250244,SANTA ROSA,MCBRIDE LN & STATE FARM DR,95403.0,38.46623454,-122.73023130000001
250245,SANTA ROSA,KENMORE LN & SEBASTOPOL RD,95407.0,38.42674234,-122.7430645
250246,SANTA ROSA,DELPORT AVE & MCMINN AVE,95407.0,38.42354054,-122.731278
250247,SANTA ROSA,SANTA ROSA AVE & SONOMA AVE,95404.0,38.43665196,-122.71227809999999
250248,SANTA ROSA,N WRIGHT RD & SEBASTOPOL RD,95407.0,38.42479011,-122.7688835
250249,SANTA ROSA,5TH ST & ORCHARD ST,95404.0,38.44206222,-122.71239409999998
250250,SANTA ROSA,CASEY DR & RICHIE PL,95403.0,38.46915677,-122.76918020000001
250251,SANTA ROSA,LORNADELL LN & NEOTOMAS AVE,95405.0,38.43279867,-122.67842759999998
250252,SANTA ROSA,COLLEGE AVE & ORCHARD ST,95404.0,38.44554349,-122.71352350000001
250253,SANTA ROSA,BURBANK AVE & SEBASTOPOL RD,95407.0,38.42824412,-122.7353723
250254,SANTA ROSA,CORBY AVE & HEARN AVE,95407.0,38.41429399,-122.71748640000001
250255,SANTA ROSA,PETALUMA HILL RD & WARE AVE,95404.0,38.42869339,-122.7107166
250256,SANTA ROSA,LOMBARDI CT & LOMBARDI LN & SEBASTOPOL RD,95407.0,38.42631489,-122.7483847
250257,SANTA ROSA,N DUTTON AVE & TROWBRIDGE ST,95401.0,38.43849726,-122.7287183
250258,SANTA ROSA,CHALLENGER WAY & CORPORATE CENTER PKWY,95407.0,38.423415000000006,-122.753052
250259,SANTA ROSA,DITTY AVE & RUSSELL AVE,95403.0,38.46739333,-122.7405432
250260,SANTA ROSA,FULTON RD & PINER HIGH SCHOOL,95403.0,38.46172539,-122.7696703
250261,SANTA ROSA,4TH ST & DAVIS ST,95401.0,38.438010799999994,-122.71948130000001
250262,SANTA ROSA,CLEVELAND AVE & RUSSELL AVE,95403.0,38.46919178,-122.72937320000001
250263,SANTA ROSA,ALTRURIA DR & KELSEY KNLS,95403.0,38.47704733,-122.7150398
250264,SANTA ROSA,S A ST & SONOMA AVE,95401.0,38.43587467,-122.71551409999998
250265,SANTA ROSA,MONTGOMERY DR & SOTOYOME ST,95405.0,38.44285521,-122.7017068
250266,SANTA ROSA,BATTERSEA ST & BROMPTON AVE,95403.0,38.47650244,-122.7582419
250267,SANTA ROSA,MCBRIDE LN & STATE FARM DR,95403.0,38.46623454,-122.73023130000001
250268,SANTA ROSA,5TH ST & B ST,95401.0,38.44038228,-122.7161508
250269,SANTA ROSA,2ND ST & MONTGOMERY DR,95404.0,38.44292593,-122.70452560000001
250270,SANTA ROSA,BUCKTHORN CT & FOLIA CT,95409.0,38.46264396,-122.6613247
250271,SANTA ROSA,DUTTON AVE & SEBASTOPOL RD,95407.0,38.43059702,-122.7253189
250272,SANTA ROSA,MEADOW WAY & TAYLOR VIEW DR,95404.0,38.41582069,-122.7080223
250273,SANTA ROSA,ASTON AVE & ASTON WAY & PETALUMA HILL RD,95404.0,38.42386438,-122.7081955
250274,SANTA ROSA,BICENTENNIAL WAY & SB BICENTENNIAL WY ONRAMP,95403.0,38.4706443,-122.72981340000001
250275,SANTA ROSA,SEBASTOPOL RD & STONY POINT RD,95407.0,38.42685471,-122.7413163
250276,SANTA ROSA,MONTGOMERY DR & SOTOYOME ST,95405.0,38.44285521,-122.7017068
250277,SANTA ROSA,LEDDY AVE & SEBASTOPOL RD,95407.0,38.42495205,-122.76666759999999
250278,SANTA ROSA,DUTTON AVE & SEBASTOPOL RD,95407.0,38.43059702,-122.7253189
250279,SANTA ROSA,MONTGOMERY DR & SHADOW LN & SUMMERFIELD RD,95405.0,38.45496838,-122.6721729
250280,SANTA ROSA,TOWNVIEW AVE & TOWNVIEW LN,95405.0,38.43525419,-122.6859145
250281,SANTA ROSA,LEVINE DR & SUFFOLK DR,95401.0,38.44585316,-122.7555475
250282,SANTA ROSA,5TH ST & RILEY ST,95404.0,38.4414286,-122.71379180000001
250283,SANTA ROSA,CHARLES ST & SANTA ROSA AVE,95404.0,38.43535628,-122.7120801
250284,SANTA ROSA,BELLEVUE AVE & JUNIPER AVE,95407.0,38.40182539999999,-122.7267889
250285,SANTA ROSA,BRUSH CREEK RD & HWY 12,95409.0,38.45447584,-122.68080900000001
250286,SANTA ROSA,SUMMERFIELD RD & TEE VIEW CT,95405.0,38.42628117,-122.65781170000001
250287,SANTA ROSA,MONTGOMERY DR & SHADOW LN & SUMMERFIELD RD,95405.0,38.45496838,-122.6721729
250288,SANTA ROSA,BROOKWOOD AVE & SONOMA AVE,95404.0,38.44036347,-122.70283090000001
250289,SANTA ROSA,S A ST & SONOMA AVE,95401.0,38.43587467,-122.71551409999998
250290,SANTA ROSA,GUERNEVILLE RD & VELMA AVE,95403.0,38.45255509,-122.76613870000001
250291,SANTA ROSA,MENDOCINO AVE & SCHURMAN DR,95403.0,38.46311909,-122.7182737
250292,SANTA ROSA,PIMLICO WAY & PUTNEY DR,95401.0,38.446513,-122.75633799999999
250293,SANTA ROSA,BURT ST & SANTA ROSA AVE,95407.0,38.40971025,-122.7134884
250294,SANTA ROSA,DAWSON RD & MENDOCINO AVE,95403.0,38.47297747,-122.72614070000002
250295,SANTA ROSA,WEATHERBY AVE & WICKET AVE,95403.0,38.4769284,-122.75940420000002
250296,SANTA ROSA,FARMERS LN & MONTGOMERY DR,95405.0,38.44654316,-122.6880353
250297,SANTA ROSA,2ND ST & SANTA ROSA AVE,95404.0,38.43903444,-122.71295049999999
250298,SANTA ROSA,GLENBROOK DR & WESTBROOK DR,95401.0,38.43700831,-122.7403962
250299,SANTA ROSA,ASPEN LEAF LN & JENNINGS AVE,95401.0,38.45363033,-122.72840559999999
250300,SANTA ROSA,KAREN WAY & VALLEJO ST,95404.0,38.4384119,-122.6968065
250301,SANTA ROSA,E JASMINE CIR & LAUREL GROVE CIR,95407.0,38.427652,-122.745051
250302,SANTA ROSA,5TH ST & RILEY ST,95404.0,38.4414286,-122.71379180000001
250303,SANTA ROSA,GUERNEVILLE RD & RANGE AVE,95401.0,38.45884356,-122.7326085
250304,SANTA ROSA,EB STONY POINT RD ONRAMP & STONY POINT RD,95407.0,38.42984924,-122.74171740000001
250305,SANTA ROSA,AIRWAY CT & AIRWAY DR,95403.0,38.47455094,-122.7381111
250306,SANTA ROSA,BAMBI LN & MIDDLE RINCON RD,95409.0,38.473887,-122.67126640000001
250307,SANTA ROSA,MILTON ST & TEMPLE AVE,95404.0,38.42748104,-122.7044132
250308,SANTA ROSA,MATTSON LN & SEBASTOPOL RD,95407.0,38.42570587,-122.75687450000001
250309,SANTA ROSA,ROBERTS AVE & SEBASTOPOL RD,95407.0,38.43118849,-122.72284590000001
250310,SANTA ROSA,HOLBROOK ST & ROBERTS AVE,95407.0,38.43292376,-122.7225394
250311,SANTA ROSA,10TH ST & MENDOCINO AVE,95401.0,38.44389187,-122.7165195
250312,SANTA ROSA,CORBY AVE & SB HEARN AV OFFRAMP & SB HEARN AV ONRAMP,95407.0,38.41333341,-122.7171869
250313,SANTA ROSA,BIRCH MEADOW ST & TUXHORN DR,95407.0,38.40974005,-122.7277182
250314,SANTA ROSA,AVIGNON CIR & ORLEANS ST,95403.0,38.474115999999995,-122.76899499999999
250315,SANTA ROSA,OLDFIELD WAY & WALL PL,95401.0,38.43294769,-122.7445656
250316,SANTA ROSA,HOEN AVE & YULUPA AVE,95405.0,38.43955238,-122.67158059999998
250317,SANTA ROSA,BARHAM AVE & S A ST,95404.0,38.42715301,-122.7138562
250318,SANTA ROSA,CLAIBORNE CIR & WICKET AVE,95403.0,38.47528049,-122.75940619999999
250319,SANTA ROSA,LEWIS RD & LOMITAS AVE,95404.0,38.46121774,-122.71653300000001
250320,SANTA ROSA,AIRWAY DR & INDUSTRIAL DR,95403.0,38.47686128,-122.7381217
250321,SANTA ROSA,MONTGOMERY DR & SHADOW LN & SUMMERFIELD RD,95405.0,38.45496838,-122.6721729
250322,SANTA ROSA,MEDA AVE & METEORITE LN,95404.0,38.41900546,-122.69759850000001
250323,SANTA ROSA,HOYAL DR & STOW CIR,95409.0,38.48326356,-122.6551986
250324,SANTA ROSA,KAREN WAY & VALLEJO ST,95404.0,38.4384119,-122.6968065
250325,SANTA ROSA,ADMINISTRATION DR & COUNTY CENTER DR,95403.0,38.46415311,-122.7258716
250326,SANTA ROSA,RANGE AVE & W STEELE LN,95403.0,38.45997358,-122.73261799999999
250327,SANTA ROSA,JENNINGS AVE & NYLA PL,95401.0,38.44978962,-122.752269
250328,SANTA ROSA,LEWIS RD & LOMITAS AVE,95404.0,38.46121774,-122.71653300000001
250329,SANTA ROSA,MILTON ST & PETALUMA HILL RD,95404.0,38.42573338,-122.70927659999998
250330,SANTA ROSA,BROOKLYN DR & MANHATTAN WAY,95401.0,38.44669518,-122.74461699999999
250331,SANTA ROSA,KAWANA SPRINGS RD & SANTA ROSA AVE,95407.0,38.41644952,-122.7135188
250332,SANTA ROSA,EL CAMINO WAY & GROSSE AVE,95404.0,38.45389804,-122.6946578
250333,SANTA ROSA,ALTA VISTA AVE & MONTECITO AVE & ROCKRIDGE LN,95404.0,38.46858344,-122.68843259999998
250334,SANTA ROSA,ARBOR GROVE LN & PARK MEADOW DR,95407.0,38.41233723,-122.74425020000001
250335,SANTA ROSA,HOEN AVE & MORRIS CT,95405.0,38.44574276,-122.652634
250336,SANTA ROSA,CENTRAL AVE & RIDGWAY AVE,95401.0,38.44875168,-122.72771440000001
250337,SANTA ROSA,FREDERICK ST & JENNINGS AVE,95401.0,38.44963917,-122.74879320000001
250338,SANTA ROSA,INDUSTRIAL DR & PINER RD,95403.0,38.47148370000001,-122.73962809999999
250339,SANTA ROSA,7TH ST & B ST,95401.0,38.44197802,-122.71732620000002
250340,SANTA ROSA,BADGER RD & PETRIE LN,95409.0,38.4821631,-122.67562530000001
250341,SANTA ROSA,BEDFORD ST & LANSBURY ST,95404.0,38.41906182,-122.70772959999998
250342,SANTA ROSA,RCOP & SEBASTOPOL RD,95407.0,38.43024644,-122.7269034
250343,SANTA ROSA,SAN MIGUEL AVE & VERSAILLES ST,95403.0,38.47305189,-122.7655585
250344,SANTA ROSA,ARROWHEAD DR & GOLDPAN WAY,95407.0,38.41198082,-122.73778459999998
250345,SANTA ROSA,SENNA DR & W 3RD ST,95401.0,38.4379375,-122.7615328
250346,SANTA ROSA,CLAREMONT CT & YULUPA AVE,95405.0,38.44590336,-122.6764881
250347,SANTA ROSA,ALLAN WAY & COOPER DR,95404.0,38.42755502,-122.69388470000001
250348,SANTA ROSA,FULTON RD & HALL RD & W 3RD ST,95401.0,38.4380231,-122.77030900000001
250349,SANTA ROSA,SAINT JOHN CT & VALDES DR,95403.0,38.45839803,-122.75363700000001
250350,SANTA ROSA,HOEN AVE & MORRIS CT,95405.0,38.44574276,-122.652634
250351,SANTA ROSA,KAREN WAY & VALLEJO ST,95404.0,38.4384119,-122.6968065
250352,SANTA ROSA,SEBASTOPOL RD & STONY POINT RD,95407.0,38.42685471,-122.7413163
250353,SANTA ROSA,CODY CT & PETERSON LN,95403.0,38.461123799999996,-122.76413020000001
250354,SANTA ROSA,SUNLEAF LN & W STEELE LN,95403.0,38.45998808,-122.73563130000001
250355,SANTA ROSA,KAREN WAY & VALLEJO ST,95404.0,38.4384119,-122.6968065
250356,SANTA ROSA,EDWARDS AVE & RACCOON LN,95401.0,38.455409499999995,-122.72817260000001
250357,SANTA ROSA,RUTH PL & W 9TH ST,95401.0,38.44136737,-122.7421851
250358,SANTA ROSA,CAROL LN & SAINT ANTHONY WAY,95404.0,38.43056197,-122.69242009999999
250359,SANTA ROSA,MISSION BLVD & RANDALL LN,95409.0,38.46148867,-122.67626429999999
250360,SANTA ROSA,4TH ST & CHINN ST,95404.0,38.44379613,-122.706748
250361,SANTA ROSA,2ND ST & PIERCE ST,95404.0,38.44351505,-122.7037485
250362,SANTA ROSA,3RD ST & B ST,95401.0,38.43894087,-122.71507849999999
250363,SANTA ROSA,STONY POINT PLZ & STONY POINT RD,95407.0,38.42866101,-122.74153390000002
250364,SANTA ROSA,CARRILLO ST & MENDOCINO AVE,95401.0,38.44668339,-122.7177146
250365,SANTA ROSA,MIDWAY DR & SONOMA AVE,95405.0,38.44308547,-122.6929146
250366,SANTA ROSA,SAN ANTONIO DR & SUMMERFIELD RD,95405.0,38.43286475,-122.6599383
250367,SANTA ROSA,BROOKWOOD AVE & TOKAY ST,95404.0,38.42006363,-122.6956618
250368,SANTA ROSA,BRISTLECONE CT & FIR RIDGE DR & W BRISTLECONE CT,95403.0,38.49310728,-122.7065742
250369,SANTA ROSA,GLENBROOK DR & WESTBROOK DR,95401.0,38.43700831,-122.7403962
250370,SANTA ROSA,FULTON RD & PINER HIGH SCHOOL,95403.0,38.46172539,-122.7696703
250371,SANTA ROSA,KAREN WAY & VALLEJO ST,95404.0,38.4384119,-122.6968065
250372,SANTA ROSA,BENTON ST & SLATER ST,95404.0,38.44783472,-122.71599409999999
250373,SANTA ROSA,3RD ST & D ST,95404.0,38.44039704,-122.7117999
250374,SANTA ROSA,CLEVELAND AVE & GUERNEVILLE RD & W STEELE LN,95401.0,38.45991177,-122.7284087
250375,SANTA ROSA,MENDOCINO AVE & SCHURMAN DR,95403.0,38.46311909,-122.7182737
250376,SANTA ROSA,CORBY AVE & SMOKEWOOD DR,95407.0,38.41784264,-122.71750449999999
250377,SANTA ROSA,BEDFORD ST & LANSBURY ST,95404.0,38.41906182,-122.70772959999998
250378,SANTA ROSA,COMSTOCK MIDDLE SCHOOL & W STEELE LN,95403.0,38.45974195,-122.7464246
250379,SANTA ROSA,BROOKWOOD AVE & SONOMA AVE,95404.0,38.44036347,-122.70283090000001
250380,SANTA ROSA,FARMERS LN & PATIO CT,95405.0,38.44173424,-122.68725659999998
250381,SANTA ROSA,CHANATE RD & HOSPITAL,95404.0,38.46840455,-122.70757859999999
250382,SANTA ROSA,MIDWAY DR & SONOMA AVE,95405.0,38.44308547,-122.6929146
250383,SANTA ROSA,KINGWOOD ST & N DUTTON AVE,95401.0,38.44447398,-122.7305423
250384,SANTA ROSA,VICTORIA CT & VICTORIA DR,95407.0,38.41265388,-122.7223808
250385,SANTA ROSA,GARDNER AVE & KENMORE LN,95407.0,38.42325801,-122.7425506
250386,SANTA ROSA,2ND ST & MONTGOMERY DR,95404.0,38.44292593,-122.70452560000001
250387,SANTA ROSA,FENWICK DR & GAREFFA WAY,95401.0,38.43647941,-122.7462152
250388,SANTA ROSA,BELLEVUE RNCH & BIGHORN SHEEP ST,95407.0,38.40824168,-122.74028249999999
250389,SANTA ROSA,MONTGOMERY DR & SOTOYOME ST,95405.0,38.44285521,-122.7017068
250390,SANTA ROSA,KAREN WAY & VALLEJO ST,95404.0,38.4384119,-122.6968065
250391,SANTA ROSA,AIRWAY DR & CENTER DR,95403.0,38.47399546,-122.738114
250392,SANTA ROSA,GUERNEVILLE RD & LANCE DR,95401.0,38.45453356,-122.7393845
250393,SANTA ROSA,PINER PL & PINER RD,95403.0,38.47201577,-122.73668159999998
250394,SANTA ROSA,ADMINISTRATION DR & CHANATE RD & MENDOCINO AVE,95403.0,38.46505778,-122.71938200000001
250395,SANTA ROSA,6TH ST & WILSON ST,95401.0,38.43876378,-122.7216926
250396,SANTA ROSA,OAK LEAF DR & OLD OAK LN,95409.0,38.43770367,-122.5848683
250397,SANTA ROSA,COFFEY LN & CONDO CT,95403.0,38.46738479,-122.74249879999999
250398,SANTA ROSA,FARMERS LN & HOEN AVE FRONTAGE RD & HWY 12 E,95405.0,38.43516241,-122.68761950000001
250399,SANTA ROSA,7TH ST & WILSON ST,95401.0,38.4394771,-122.72221869999998
250400,SANTA ROSA,CLEVELAND AVE & GUERNEVILLE RD & W STEELE LN,95401.0,38.45991177,-122.7284087
250401,SANTA ROSA,JENNINGS AVE & MARLOW RD,95401.0,38.44962054,-122.7513244
250402,SANTA ROSA,NAVARRO ST & W COLLEGE AVE,95401.0,38.44524539,-122.75437520000001
250403,SANTA ROSA,PLATA CT & SUNLEAF LN,95403.0,38.45812259,-122.7358441
250404,SANTA ROSA,CROWN HILL DR & DARLINGTON CT,95404.0,38.48708217,-122.69891090000002
250405,SANTA ROSA,BELGREEN PL & BELHAVEN CIR,95409.0,38.437910200000005,-122.59578629999999
250406,SANTA ROSA,CLOVER DR & W COLLEGE AVE,95401.0,38.44540732,-122.7394594
250407,SANTA ROSA,4TH ST & MENDOCINO AVE & SANTA ROSA AVE,95404.0,38.44046206,-122.7140115
250408,SANTA ROSA,HOEN AVE & YULUPA AVE,95405.0,38.43955238,-122.67158059999998
250409,SANTA ROSA,4TH ST & MENDOCINO AVE & SANTA ROSA AVE,95404.0,38.44046206,-122.7140115
250410,SANTA ROSA,INDUSTRIAL DR & PINER RD,95403.0,38.47148370000001,-122.73962809999999
250411,SANTA ROSA,MENDOCINO AVE & SCHURMAN DR,95403.0,38.46311909,-122.7182737
250412,SANTA ROSA,MADELYNE PL & WHITE OAK DR,95409.0,38.42592431,-122.59940230000001
250413,SANTA ROSA,5TH ST & DAVIS ST,95401.0,38.43862443,-122.71994099999999
250414,SANTA ROSA,CULEBRA AVE & LAS RAPOSAS CT,95409.0,38.46675429,-122.6740923
250415,SANTA ROSA,9TH ST & DAVIS ST,95401.0,38.44227895,-122.72239669999999
250416,SANTA ROSA,DUTTON AVE & EB DUTTON AV OFFRAMP & EB DUTTON AV ONRAMP,95407.0,38.43263618,-122.7260264
250417,SANTA ROSA,OLIVE ST & SEBASTOPOL RD,95407.0,38.432080299999996,-122.7190497
250418,SANTA ROSA,ACACIA LN & QUIGG DR,95409.0,38.46132246,-122.6679426
250419,SANTA ROSA,MISSION BLVD & MONTECITO BLVD,95409.0,38.47200733,-122.6769896
250420,SANTA ROSA,FULTON RD & HALL RD & W 3RD ST,95401.0,38.4380231,-122.77030900000001
250421,SANTA ROSA,W COLLEGE AVE & WILD ROSE DR,95401.0,38.4453395,-122.7417051
250422,SANTA ROSA,FULTON RD & HALL RD & W 3RD ST,95401.0,38.4380231,-122.77030900000001
250423,SANTA ROSA,BROOKWOOD AVE & SONOMA AVE,95404.0,38.44036347,-122.70283090000001
250424,SANTA ROSA,TRACKS & W STEELE LN,95403.0,38.45997829,-122.7406116
250425,SANTA ROSA,AHL PARK CT & SUMMERFIELD RD,95405.0,38.45154944,-122.66967520000001
250426,SANTA ROSA,HUMBOLDT ST & PACIFIC AVE,95404.0,38.45329286,-122.71442990000001
250427,SANTA ROSA,MAITLAND AVE & YEAGER DR,95407.0,38.41378213,-122.7589558
250428,SANTA ROSA,MAPLE AVE & S A ST & SANTA ROSA AVE,95404.0,38.43143133,-122.71127560000001
250429,SANTA ROSA,COMMERCIAL CT & SANTA ROSA AVE,95407.0,38.41763017,-122.71351940000001
250430,SANTA ROSA,KENMORE LN & SEBASTOPOL RD,95407.0,38.42674234,-122.7430645
250431,SANTA ROSA,1ST ST & A ST,95401.0,38.43701961,-122.7158571
250432,SANTA ROSA,BRUSH CREEK RD & HWY 12,95409.0,38.45447584,-122.68080900000001
250433,SANTA ROSA,COUNTY CENTER DR & PROFESSIONAL DR,95403.0,38.460974,-122.72521499999999
250434,SANTA ROSA,DOYLE PARK DR & SONOMA AVE,95405.0,38.44162603,-122.6982486
250435,SANTA ROSA,LINK LN & SUNNY MANOR WAY,95401.0,38.43985901,-122.73373500000001
250436,SANTA ROSA,LINK LN & W 9TH ST,95401.0,38.44171787,-122.73388680000001
250437,SANTA ROSA,ANGELUS ST & FLAMINGO RD,95403.0,38.47428388,-122.72853570000001
250438,SANTA ROSA,BICENTENNIAL WAY & SB BICENTENNIAL WY ONRAMP,95403.0,38.4706443,-122.72981340000001
250439,SANTA ROSA,SOPHIA DR & VAN PATTER DR,95403.0,38.47837107,-122.7692007
250440,SANTA ROSA,WIMBLEDON CT & WIMBLEDON PL,95401.0,38.43477608,-122.736604
250441,SANTA ROSA,HWY 12 & MISSION BLVD,95409.0,38.45873641,-122.67438670000001
250442,SANTA ROSA,N DUTTON AVE & W 9TH ST,95401.0,38.44161484,-122.7289686
250443,SANTA ROSA,CHERRY ST & MENDOCINO AVE,95401.0,38.44462863,-122.7170749
250444,SANTA ROSA,SEBASTOPOL RD & STONY POINT RD,95407.0,38.42685471,-122.7413163
250445,SANTA ROSA,LINK LN & W 9TH ST,95401.0,38.44171787,-122.73388680000001
250446,SANTA ROSA,BROOKWOOD AVE & SONOMA AVE,95404.0,38.44036347,-122.70283090000001
250447,SANTA ROSA,BAKER AVE & COLGAN AVE & SANTA ROSA AVE,95404.0,38.42120417,-122.71350090000001
250448,SANTA ROSA,SANTA ROSA AVE & SOUTHSIDE,95407.0,38.41151265,-122.713498
250449,SANTA ROSA,DUTTON AVE & SOUTH AVE & TORZELLI LN,95407.0,38.42412386,-122.72458470000001
250450,SANTA ROSA,EDWARDS AVE & RACCOON LN,95401.0,38.455409499999995,-122.72817260000001
250451,SANTA ROSA,ANGELUS ST & FLAMINGO RD,95403.0,38.47428388,-122.72853570000001
250452,SANTA ROSA,ODELL LN & STROVEN LN,95407.0,38.42205332,-122.72923259999999
250453,SANTA ROSA,STONY CIR & STONY POINT RD,95401.0,38.4410492,-122.74599740000002
250454,SANTA ROSA,ASHWOOD DR & WHITEWOOD DR,95407.0,38.41845752,-122.7203524
250455,SANTA ROSA,LA PALOMA AVE & ROGERS WAY,95404.0,38.45112279999999,-122.69179640000002
250456,SANTA ROSA,COUNTY CENTER DR & PROFESSIONAL DR,95403.0,38.460974,-122.72521499999999
250457,SANTA ROSA,CALICO LN & KAWANA SPRINGS RD,95407.0,38.41646151,-122.71112859999998
250458,SANTA ROSA,CRAWFORD CT & MENDOCINO AVE,95401.0,38.4515494,-122.7174904
250459,SANTA ROSA,CHANATE CT & CHANATE RD,95404.0,38.47156748,-122.7017945
250460,SANTA ROSA,3RD ST & MORGAN ST & NB SR DOWNTOWN OFFRAMP,95401.0,38.43769345,-122.71779679999999
250461,SANTA ROSA,LANEWOOD WAY & SUNNYSLOPE DR,95404.0,38.46409677,-122.67905420000001
250462,SANTA ROSA,MONTGOMERY DR & SOTOYOME ST,95405.0,38.44285521,-122.7017068
250463,SANTA ROSA,BENICIA DR & MONTECITO BLVD,95409.0,38.47330973,-122.67563490000002
250464,SANTA ROSA,CLEVELAND AVE & RIPLEY ST,95401.0,38.44239595,-122.72459040000001
250465,SANTA ROSA,CLEVELAND AVE & GUERNEVILLE RD & W STEELE LN,95401.0,38.45991177,-122.7284087
250466,SANTA ROSA,BRANDEE CT & BRANDEE LN & WINDROSE CT & WINDROSE LN,95403.0,38.48047472,-122.7561182
250467,SANTA ROSA,ACACIA LN & QUIGG DR,95409.0,38.46132246,-122.6679426
250468,SANTA ROSA,MONTGOMERY DR & SOTOYOME ST,95405.0,38.44285521,-122.7017068
250469,SANTA ROSA,SEBASTOPOL RD & WEST AVE,95407.0,38.42978491,-122.72890819999999
250470,SANTA ROSA,BROMPTON AVE & WALTZER RD,95403.0,38.47655082,-122.7563377
250471,SANTA ROSA,KAWANA SPRINGS RD & MEADOW WAY,95404.0,38.41646107,-122.70881059999999
250472,SANTA ROSA,GLENBROOK DR & STONY POINT RD,95401.0,38.437332299999994,-122.74285379999999
250473,SANTA ROSA,HAHMAN DR & MAGOWAN DR,95405.0,38.44571788,-122.6859217
250474,SANTA ROSA,APACHE ST & CREE CT & PAPAGO CT,95403.0,38.4612714,-122.74486359999999
250475,SANTA ROSA,RICHMOND DR & SALEM AVE,95401.0,38.45956577,-122.7190646
250476,SANTA ROSA,BROOKWOOD AVE & SONOMA AVE,95404.0,38.44036347,-122.70283090000001
250477,SANTA ROSA,SEBASTOPOL RD & WEST AVE,95407.0,38.42978491,-122.72890819999999
250478,SANTA ROSA,BOAS DR & MOROCCO AVE,95409.0,38.46805009,-122.65826470000002
250479,SANTA ROSA,COLLEGE AVE & MORGAN ST,95401.0,38.44577885,-122.72255679999999
250480,SANTA ROSA,4TH ST & E ST,95404.0,38.4419527,-122.7107402
250481,SANTA ROSA,CLEVELAND AVE & COLLEGE AVE,95401.0,38.44589407,-122.726646
250482,SANTA ROSA,EDGEWATER DR & SILVER STONE LN,95407.0,38.41423203,-122.7436778
250483,SANTA ROSA,4TH ST & HOPE ST,95404.0,38.44315547,-122.7081412
250484,SANTA ROSA,MENDOCINO AVE & SCHURMAN DR,95403.0,38.46311909,-122.7182737
250485,SANTA ROSA,OLIVE ST & SEBASTOPOL RD,95407.0,38.432080299999996,-122.7190497
250486,SANTA ROSA,1ST ST & SANTA ROSA AVE,95404.0,38.43827333,-122.71251090000001
250487,SANTA ROSA,2ND ST & BROOKWOOD AVE,95404.0,38.4421805,-122.706061
250488,SANTA ROSA,N DUTTON AVE & W 8TH ST,95401.0,38.43917341,-122.7287806
250489,SANTA ROSA,LA PALOMA AVE & ROGERS WAY,95404.0,38.45112279999999,-122.69179640000002
250490,SANTA ROSA,FLINTRIDGE DR & SKYFARM DR,95403.0,38.49805368,-122.7232929
250491,SANTA ROSA,4TH ST & BROOKWOOD AVE,95404.0,38.44356872,-122.70722140000001
250492,SANTA ROSA,RICHMOND DR & SALEM AVE,95401.0,38.45956577,-122.7190646
250493,SANTA ROSA,CALICO LN & KAWANA SPRINGS RD,95407.0,38.41646151,-122.71112859999998
250494,SANTA ROSA,CHARNING CROSS LN & GADS HILL CT & GADS HILL ST,95401.0,38.44206929,-122.7611068
250495,SANTA ROSA,AVALON AVE & SEBASTOPOL RD,95407.0,38.43019484,-122.72711840000001
250496,SANTA ROSA,LAUREL GROVE CIR & SEBASTOPOL RD,95407.0,38.42644233,-122.7466994
250497,SANTA ROSA,DAWSON RD & MENDOCINO AVE,95403.0,38.47297747,-122.72614070000002
250498,SANTA ROSA,LA PALOMA AVE & ROGERS WAY,95404.0,38.45112279999999,-122.69179640000002
250499,SANTA ROSA,SAM DR & TONY WAY,95403.0,38.46808122,-122.76876200000001
250500,SANTA ROSA,KAREN WAY & VALLEJO ST,95404.0,38.4384119,-122.6968065
250501,SANTA ROSA,AUTUMN WALK DR & GOLDLEAF LN,95403.0,38.47541349,-122.75439399999999
250502,SANTA ROSA,1ST ST & A ST,95401.0,38.43701961,-122.7158571
250503,SANTA ROSA,KAWANA SPRINGS RD & SANTA ROSA AVE,95407.0,38.41644952,-122.7135188
250504,SANTA ROSA,OAK LAKE AVE & OAK PARK WAY,95409.0,38.47421941,-122.65738449999999
250505,SANTA ROSA,FRANKLIN AVE & WRIGHT ST,95404.0,38.45966683,-122.7093247
250506,SANTA ROSA,RICHMOND DR & SALEM AVE,95401.0,38.45956577,-122.7190646
250507,SANTA ROSA,KAWANA SPRINGS RD & MEADOW WAY,95404.0,38.41646107,-122.70881059999999
250508,SANTA ROSA,FOUNTAINGROVE PKWY & THOMAS LAKE HARRIS DR,95403.0,38.479745,-122.720133
250509,SANTA ROSA,MAXWELL CT & N DUTTON AVE,95401.0,38.442763299999996,-122.7292925
250510,SANTA ROSA,BOND ST & CONNIE ST,95407.0,38.40586434,-122.7100557
250511,SANTA ROSA,SUNSET AVE & WEST AVE,95407.0,38.42750512,-122.7286485
250512,SANTA ROSA,7TH ST & A ST,95401.0,38.4414495,-122.7190885
250513,SANTA ROSA,DEVONSHIRE PL & STONEHEDGE DR,95405.0,38.44230838,-122.65829280000001
250514,SANTA ROSA,BOSLEY ST & SEBASTOPOL AVE,95401.0,38.4333222,-122.7138068
250515,SANTA ROSA,MAPLE AVE & S A ST & SANTA ROSA AVE,95404.0,38.43143133,-122.71127560000001
250516,SANTA ROSA,BAY MEADOW DR & PINER RD,95403.0,38.46713873,-122.75460690000001
250517,SANTA ROSA,CARRILLO ST & MORGAN ST,95401.0,38.44679807,-122.72251200000001
250518,SANTA ROSA,CLEVELAND AVE & GUERNEVILLE RD & W STEELE LN,95401.0,38.45991177,-122.7284087
250519,SANTA ROSA,CORPORATE CENTER PKWY & SEBASTOPOL RD,95407.0,38.42592609,-122.75336850000001
250520,SANTA ROSA,HAHMAN DR & HOEN AVE,95405.0,38.43853683,-122.68543740000001
250521,SANTA ROSA,NORTHCOAST ST & TOLAR AVE,95403.0,38.4565141,-122.7411455
250522,SANTA ROSA,HEWETT ST & LINK LN,95401.0,38.43731957,-122.73360420000002
250523,SANTA ROSA,HWY 12 & MELITA RD,95409.0,38.45594683,-122.62796540000001
250524,SANTA ROSA,MCMINN AVE & ROSELAND AVE & SEBASTOPOL RD,95407.0,38.42894733,-122.73236999999999
250525,SANTA ROSA,CLEVELAND AVE & RUSSELL AVE,95403.0,38.46919178,-122.72937320000001
250526,SANTA ROSA,S E ST & SONOMA AVE,95404.0,38.43879551,-122.7084638
250527,SANTA ROSA,DUTTON AVE & N DUTTON AVE & W 3RD ST,95401.0,38.43412344,-122.72660729999998
250528,SANTA ROSA,7TH ST & B ST,95401.0,38.44197802,-122.71732620000002
250529,SANTA ROSA,N DUTTON AVE & W 8TH ST,95401.0,38.43917341,-122.7287806
250530,SANTA ROSA,DUTTON AVE & SEBASTOPOL RD,95407.0,38.43059702,-122.7253189
250531,SANTA ROSA,STEELE WAY & W STEELE LN,95403.0,38.45997305,-122.7324827
250532,SANTA ROSA,4TH ST & MENDOCINO AVE & SANTA ROSA AVE,95404.0,38.44046206,-122.7140115
250533,SANTA ROSA,PETALUMA HILL RD & SANTA ROSA AVE,95404.0,38.42975173,-122.71133049999999
250534,SANTA ROSA,5TH ST & BROOKWOOD AVE,95404.0,38.44431337,-122.70773290000001
250535,SANTA ROSA,5TH ST & B ST,95401.0,38.44038228,-122.7161508
250536,SANTA ROSA,LINK LN & W 9TH ST,95401.0,38.44171787,-122.73388680000001
250537,SANTA ROSA,FULTON RD & W COLLEGE AVE,95401.0,38.44532601,-122.76962730000001
250538,SANTA ROSA,STEELE WAY & W STEELE LN,95403.0,38.45997305,-122.7324827
250539,SANTA ROSA,3RD ST & MONTGOMERY DR,95404.0,38.44302503,-122.7060213
250540,SANTA ROSA,HWY 12 & MIDDLE RINCON RD,95409.0,38.46383244,-122.6649856
250541,SANTA ROSA,2ND ST & D ST,95404.0,38.439783899999995,-122.71132820000001
250542,SANTA ROSA,BARHAM AVE & SANTA ROSA AVE,95404.0,38.42721652,-122.7132107
250543,SANTA ROSA,6TH ST & MORGAN ST & NB SR DOWNTOWN ONRAMP,95401.0,38.43992913,-122.7193773
250544,SANTA ROSA,SEBASTOPOL RD & WEST AVE,95407.0,38.42978491,-122.72890819999999
250545,SANTA ROSA,BETHEL AVE & LINK LN,95401.0,38.44339327,-122.7340091
250546,SANTA ROSA,BENNETT VALLEY RD & SANTA ROSA AVE,95404.0,38.43054545,-122.7110831
250547,SANTA ROSA,SPARROW CREEK ST & W COLLEGE AVE,95401.0,38.44521652,-122.74903090000001
250548,SANTA ROSA,3RD ST & MORGAN ST & NB SR DOWNTOWN OFFRAMP,95401.0,38.43769345,-122.71779679999999
250549,SANTA ROSA,CITRINE WAY & GLENWELL DR,95404.0,38.42354013,-122.6988081
250550,SANTA ROSA,CHANATE RD & HOSPITAL,95404.0,38.46840455,-122.70757859999999
250551,SANTA ROSA,CORPORATE CENTER PKWY & SEBASTOPOL RD,95407.0,38.42592609,-122.75336850000001
250552,SANTA ROSA,SEBASTOPOL RD & WEST AVE,95407.0,38.42978491,-122.72890819999999
250553,SANTA ROSA,4TH ST & MORGAN ST,95401.0,38.43849846,-122.71840470000001
250554,SANTA ROSA,CLEVELAND AVE & RUSSELL AVE,95403.0,38.46919178,-122.72937320000001
250555,SANTA ROSA,BURBANK AVE & HEARN AVE,95407.0,38.41378271,-122.73353090000002
250556,SANTA ROSA,BONITA VISTA LN & CHANATE RD,95404.0,38.47136054,-122.69972279999999
250557,SANTA ROSA,3RD ST & BROOKWOOD AVE,95404.0,38.442735299999995,-122.7066597
250558,SANTA ROSA,4TH ST & COLLEGE AVE,95404.0,38.44505682,-122.7046172
250559,SANTA ROSA,STONY POINT RD & W 3RD ST,95401.0,38.43379484,-122.74240049999999
250560,SANTA ROSA,BEACHWOOD DR & INGLEWOOD DR,95407.0,38.42428844,-122.72065079999999
250561,SANTA ROSA,CEDARWOOD DR & W COLLEGE AVE & ZUUR ST,95401.0,38.44554535,-122.73680139999999
250562,SANTA ROSA,DUTTON AVE & SEBASTOPOL RD,95407.0,38.43059702,-122.7253189
250563,SANTA ROSA,S E ST & WHEELER ST,95404.0,38.43569881,-122.7057192
250564,SANTA ROSA,ADMINISTRATION DR & CHANATE RD & MENDOCINO AVE,95403.0,38.46505778,-122.71938200000001
250565,SANTA ROSA,B ST & ROSS ST,95401.0,38.44139971,-122.71690690000001
250566,SANTA ROSA,FUNSTON DR & HOGREFE WAY,95407.0,38.4223974,-122.722753
250567,SANTA ROSA,NEOTOMAS AVE & POST RANCH RD,95405.0,38.43324786,-122.6835374
250568,SANTA ROSA,9TH ST & MORGAN ST,95401.0,38.44250791,-122.721028
250569,SANTA ROSA,S E ST & STEVENSON ST,95404.0,38.43406807,-122.7047886
250570,SANTA ROSA,OCCIDENTAL RD & WESTMONT PL,95401.0,38.42905519,-122.75994720000001
250571,SANTA ROSA,TARA DR & W BARHAM AVE,95407.0,38.42610469,-122.72283909999999
250572,SANTA ROSA,MARLOW CT & MARLOW RD & W STEELE LN,95403.0,38.45977767,-122.75119640000001
250573,SANTA ROSA,SB STEELE LN OFFRAMP & SB STEELE LN ONRAMP & STEELE LN & W STEELE LN,95403.0,38.45993819,-122.7267705
250574,SANTA ROSA,HOPPER AVE & SB HOPPER AV OFFRAMP,95403.0,38.47971079,-122.7352915
250575,SANTA ROSA,DEVONSHIRE PL & STONEHEDGE DR,95405.0,38.44230838,-122.65829280000001
250576,SANTA ROSA,OAKMONT DR & STONE BRIDGE RD,95409.0,38.442697499999994,-122.6057617
250577,SANTA ROSA,5TH ST & RILEY ST,95404.0,38.4414286,-122.71379180000001
250578,SANTA ROSA,MILL ST & SANTA ROSA AVE & SEBASTOPOL AVE,95404.0,38.43382248,-122.71176990000001
250579,SANTA ROSA,MCCONNELL AVE & MENDOCINO AVE,95401.0,38.45476696,-122.7173608
250580,SANTA ROSA,BROOKWOOD AVE & SONOMA AVE,95404.0,38.44036347,-122.70283090000001
250581,SANTA ROSA,ROYAL GORGE & S BOAS DR,95409.0,38.46339427,-122.65789709999999
250582,SANTA ROSA,COLLEGE AVE & ORCHARD ST,95404.0,38.44554349,-122.71352350000001
250583,SANTA ROSA,BELLEVUE AVE & DUTTON AVE,95407.0,38.40185186,-122.72326329999999
250584,SANTA ROSA,COLLEGE AVE & ORCHARD ST,95404.0,38.44554349,-122.71352350000001
250585,SANTA ROSA,JENNA PL & MOCHA LN,95403.0,38.47756248,-122.74886550000001
250586,SANTA ROSA,HARWOOD ST & LANCE DR,95401.0,38.45259823,-122.738419
250587,SANTA ROSA,7TH ST & WILSON ST,95401.0,38.4394771,-122.72221869999998
250588,SANTA ROSA,MONTGOMERY DR & SHADOW LN & SUMMERFIELD RD,95405.0,38.45496838,-122.6721729
250589,SANTA ROSA,NORTH VILLAGE DR & VERA DR,95403.0,38.47772393,-122.7667554
250590,SANTA ROSA,LITTLE JOHN LN & SHERWOOD DR,95405.0,38.44766785,-122.6950653
250591,SANTA ROSA,POLK ST & W 7TH ST,95401.0,38.43735184,-122.7269635
250592,SANTA ROSA,GEORGIA ST & STEVENSON ST,95404.0,38.43469225,-122.7029966
250593,SANTA ROSA,BRITTAIN LN & MALIBU CIR & W 3RD ST,95401.0,38.43536883,-122.7530868
250594,SANTA ROSA,MCBRIDE LN & W STEELE LN,95403.0,38.45998549,-122.7302449
250595,SANTA ROSA,LANEWOOD WAY & SUNNYSLOPE DR,95404.0,38.46409677,-122.67905420000001
250596,SANTA ROSA,ROBERTS AVE & SEBASTOPOL RD,95407.0,38.43118849,-122.72284590000001
250597,SANTA ROSA,TOWHEE DR & WARBLER PL,95403.0,38.47207757,-122.7467074
250598,SANTA ROSA,CARRILLO ST & CLEVELAND AVE,95401.0,38.44691519,-122.72659569999999
250599,SANTA ROSA,PRESSLEY ST & RUTLEDGE AVE,95404.0,38.42808306,-122.70916650000001
250600,SANTA ROSA,MONTGOMERY DR & SOTOYOME ST,95405.0,38.44285521,-122.7017068
250601,SANTA ROSA,BROOKWOOD AVE & SONOMA AVE,95404.0,38.44036347,-122.70283090000001
250602,SANTA ROSA,W COLLEGE AVE & WILD ROSE DR,95401.0,38.4453395,-122.7417051
250603,SANTA ROSA,COUNTRY MANOR DR & OLD COTTAGE WAY,95401.0,38.45406768,-122.7730892
250604,SANTA ROSA,DUTTON AVE & EB DUTTON AV OFFRAMP & EB DUTTON AV ONRAMP,95407.0,38.43263618,-122.7260264
250605,SANTA ROSA,DUTTON AVE & FREITAS CT,95407.0,38.42764531,-122.72495900000001
250606,SANTA ROSA,MENDOCINO OV & SB MENDOCINO AV ONRAMP,95403.0,38.47536781,-122.7323398
250607,SANTA ROSA,FOUNTAINGROVE PKWY & KENDELL HILL DR,95404.0,38.47533686,-122.6895006
250608,SANTA ROSA,HEWETT ST & UMLAND DR,95401.0,38.43758314,-122.73158259999998
250609,SANTA ROSA,BROOKWOOD AVE & SONOMA AVE,95404.0,38.44036347,-122.70283090000001
250610,SANTA ROSA,CLEVELAND AVE & GUERNEVILLE RD & W STEELE LN,95401.0,38.45991177,-122.7284087
250611,SANTA ROSA,3RD ST & D ST,95404.0,38.44039704,-122.7117999
250612,SANTA ROSA,BROOKWOOD AVE & SONOMA AVE,95404.0,38.44036347,-122.70283090000001
250613,SANTA ROSA,RANGE AVE & RUSSELL AVE,95403.0,38.46912427,-122.7326346
250614,SANTA ROSA,JENNINGS AVE & LANCE DR,95401.0,38.45126687,-122.7381591
250615,SANTA ROSA,SALEM AVE & STEELE LN,95403.0,38.46064396,-122.7193733
250616,SANTA ROSA,CRIMSON LN & KERRY LN,95403.0,38.47979384,-122.7552378
250617,SANTA ROSA,CASS RD & DUTTON MEADOW,95407.0,38.4076149,-122.7294369
250618,SANTA ROSA,DIXON CT & ECHO LAKE WAY,95401.0,38.439895899999996,-122.76819679999998
250619,SANTA ROSA,KAWANA SPRINGS RD & MEADOW WAY,95404.0,38.41646107,-122.70881059999999
250620,SANTA ROSA,COLLEGE AVE & MENDOCINO AVE,95401.0,38.44564739,-122.7177125
250621,SANTA ROSA,7TH ST & A ST,95401.0,38.4414495,-122.7190885
250622,SANTA ROSA,ARROWHEAD DR & GALLOP DR,95407.0,38.41150745,-122.7376003
250623,SANTA ROSA,MARLOW RD & ROCHELE ST & VALDES DR,95403.0,38.45838097,-122.75207179999998
250624,SANTA ROSA,FUNSTON DR & HOGREFE WAY,95407.0,38.4223974,-122.722753
250625,SANTA ROSA,HAMPTON WAY & SEBASTOPOL RD,95407.0,38.42763646,-122.73785079999999
250626,SANTA ROSA,LINCOLN ST & WASHINGTON ST,95401.0,38.44502788,-122.7211998
250627,SANTA ROSA,8TH ST & DAVIS ST,95401.0,38.44076213,-122.7215076
250628,SANTA ROSA,LAKE VIEW DR & YULUPA AVE,95405.0,38.42153429,-122.66453600000001
250629,SANTA ROSA,HEIDI PL & W STEELE LN,95403.0,38.45998099,-122.73801110000001
250630,SANTA ROSA,PUEBLO CT N & PUEBLO CT S & RINCONADA DR,95409.0,38.46892046,-122.6757947
250631,SANTA ROSA,BRIGGS AVE & CARRILLO ST,95401.0,38.44705308,-122.72893190000002
250632,SANTA ROSA,LOMBARDI CT & LOMBARDI LN & SEBASTOPOL RD,95407.0,38.42631489,-122.7483847
250633,SANTA ROSA,JEFFERSON ST & W 6TH ST,95401.0,38.43779184,-122.7238764
250634,SANTA ROSA,SPARROW CREEK ST & W COLLEGE AVE,95401.0,38.44521652,-122.74903090000001
250635,SANTA ROSA,W COLLEGE AVE & WILD ROSE DR,95401.0,38.4453395,-122.7417051
250636,SANTA ROSA,BROOKWOOD AVE & SONOMA AVE,95404.0,38.44036347,-122.70283090000001
250637,SANTA ROSA,3RD ST & TRACKS & W 3RD ST,95401.0,38.436027,-122.721355
250638,SANTA ROSA,LILLIE DR & MAJOR DR,95403.0,38.46329334,-122.72223729999999
250639,SANTA ROSA,W COLLEGE AVE & WILD ROSE DR,95401.0,38.4453395,-122.7417051
250640,SANTA ROSA,MEADOW WAY & TAYLOR VIEW DR,95404.0,38.41582069,-122.7080223
250641,SANTA ROSA,PETERSON LN & VELMA AVE,95403.0,38.44912358,-122.7660182
250642,SANTA ROSA,CARINA DR & DAREK DR,95401.0,38.43271141,-122.7515848
250643,SANTA ROSA,BROOKWOOD AVE & SONOMA AVE,95404.0,38.44036347,-122.70283090000001
250644,SANTA ROSA,W COLLEGE AVE & WILD ROSE DR,95401.0,38.4453395,-122.7417051
250645,SANTA ROSA,KAWANA SPRINGS RD & MEADOW WAY,95404.0,38.41646107,-122.70881059999999
250646,SANTA ROSA,HARVEST LN & OCCIDENTAL RD,95401.0,38.42992011,-122.7476531
250647,SANTA ROSA,SEBASTOPOL RD & TRACKS,95407.0,38.431540000000005,-122.721299
250648,SANTA ROSA,GREENEICH AVE & SHELLEY DR,95401.0,38.45090289,-122.74865259999999
250649,SANTA ROSA,ARROWOOD DR & GREENWOOD DR,95407.0,38.4222799,-122.7185301
250650,SANTA ROSA,KEEGAN DR & WILKEY CT,95407.0,38.42555267,-122.74392350000001
250651,SANTA ROSA,MONTECITO BLVD & PESADO CALLE,95409.0,38.47664421,-122.6698253
250652,SANTA ROSA,KAREN WAY & VALLEJO ST,95404.0,38.4384119,-122.6968065
250653,SANTA ROSA,TACHEVAH DR & TAMARISK DR,95405.0,38.43164424,-122.6697757
250654,SANTA ROSA,FRANCISCO AVE & SUNLIT ANN DR,95403.0,38.47088279,-122.76062379999999
250655,SANTA ROSA,FIR RIDGE DR & LYON CT,95403.0,38.49319394,-122.71073700000001
250656,SANTA ROSA,LA PALOMA AVE & SIESTA LN,95404.0,38.45164188,-122.69272849999999
250657,SANTA ROSA,CAMPBELL DR & STONY POINT RD,95407.0,38.41993935,-122.74043329999999
250658,SANTA ROSA,NANCY CT & PHYLLIS ST,95401.0,38.45206801,-122.7413949
250659,SANTA ROSA,SPARROW CREEK ST & W COLLEGE AVE,95401.0,38.44521652,-122.74903090000001
250660,SANTA ROSA,BADGER RD & PETRIE LN,95409.0,38.4821631,-122.67562530000001
250661,SANTA ROSA,BOYCE ST & DONAHUE ST,95401.0,38.4403822,-122.72450740000001
250662,SANTA ROSA,BROOKWOOD AVE & MAPLE AVE & WB BROOKWOOD AV OFFRAMP,95404.0,38.4339454,-122.69939879999998
250663,SANTA ROSA,MILICENT WAY & SANTA ROSA AVE,95407.0,38.42030020000001,-122.71351090000002
250664,SANTA ROSA,SUNDANCE ST & WYATT CT,95403.0,38.46020365,-122.7634217
250665,SANTA ROSA,DUTTON AVE & W BARHAM AVE,95407.0,38.42570696,-122.72477040000001
250666,SANTA ROSA,HENDLEY ST & RAE ST,95404.0,38.43758856,-122.70864420000001
250667,SANTA ROSA,FARMERS LN & NEOTOMAS AVE,95405.0,38.43402241,-122.68804750000001
250668,SANTA ROSA,BETHARDS DR & TUXEDO PL,95405.0,38.42703197,-122.6655563
250669,SANTA ROSA,BROOKWOOD AVE & SONOMA AVE,95404.0,38.44036347,-122.70283090000001
250670,SANTA ROSA,GOLDPAN CIR & GOLDPAN WAY,95407.0,38.41237667,-122.7362325
250671,SANTA ROSA,BROOKWOOD AVE & SONOMA AVE,95404.0,38.44036347,-122.70283090000001
250672,SANTA ROSA,DUTTON AVE & EB DUTTON AV OFFRAMP & EB DUTTON AV ONRAMP,95407.0,38.43263618,-122.7260264
250673,SANTA ROSA,LITTLE JOHN LN & SHERWOOD DR,95405.0,38.44766785,-122.6950653
250674,SANTA ROSA,CARINA DR & DAREK DR,95401.0,38.43271141,-122.7515848
250675,SANTA ROSA,BLUE SKY LN & SILVER SPUR DR,95407.0,38.41164352,-122.73429080000001
250676,SANTA ROSA,PARKCREEK DR & WINTERHAVEN AVE,95404.0,38.40917695,-122.70728030000001
250677,SANTA ROSA,BLUE SKY LN & SILVER SPUR DR,95407.0,38.41164352,-122.73429080000001
250678,SANTA ROSA,BROOKWOOD AVE & SONOMA AVE,95404.0,38.44036347,-122.70283090000001
250679,SANTA ROSA,BLUEBELL DR & COFFEY LN,95403.0,38.46662813,-122.7430045
250680,SANTA ROSA,CHILDRENS CIR & RANCHO LOS GUILICOS RD,95409.0,38.44024639,-122.5825606
250681,SANTA ROSA,BENICIA DR & CULEBRA WAY,95409.0,38.468090999999994,-122.669221
250682,SANTA ROSA,SUNNY WOOD CIR & SWEET GRASS LN,95407.0,38.41248352,-122.7493996
250683,SANTA ROSA,HARDIES LN & SNOOPY PL,95403.0,38.4624214,-122.7350827
250684,SANTA ROSA,MORTON WAY & SOLANO DR,95404.0,38.43693601,-122.6943395
250685,SANTA ROSA,AVILAR PL & BOCK ST,95403.0,38.47184689,-122.7551994
250686,SANTA ROSA,BEVERLY WAY & HEXEM AVE,95404.0,38.4617073,-122.7055625
250687,SANTA ROSA,APACHE ST & LUTZTOWN CT,95403.0,38.46317975,-122.7446453
250688,SANTA ROSA,SHERIFFS DEPT EAST & SHERIFFS DEPT NORTH,95403.0,38.46852999,-122.7232521
250689,SANTA ROSA,MCBRIDE LN & W STEELE LN,95403.0,38.45998549,-122.7302449
250690,SANTA ROSA,COLGAN AVE & PETALUMA HILL RD,95404.0,38.42291731,-122.70760179999999
250691,SANTA ROSA,BROOKWOOD AVE & SONOMA AVE,95404.0,38.44036347,-122.70283090000001
250692,SANTA ROSA,4TH ST & B ST,95401.0,38.43971531,-122.71565840000001
250693,SANTA ROSA,DITTY AVE & HARDIES LN,95403.0,38.46733684,-122.73472190000001
250694,SANTA ROSA,SUNSET AVE & WEST AVE,95407.0,38.42750512,-122.7286485
250695,SANTA ROSA,BROOKWOOD AVE & SONOMA AVE,95404.0,38.44036347,-122.70283090000001
250696,SANTA ROSA,EARDLEY AVE & EARDLEY CT,95401.0,38.45001435,-122.7362446
250697,SANTA ROSA,4TH ST & D ST,95404.0,38.44121202,-122.7123828
250698,SANTA ROSA,FARMERS LN & PATIO CT,95405.0,38.44173424,-122.68725659999998
250699,SANTA ROSA,CORLANO AVE & LEE ST,95404.0,38.43511943,-122.69815990000002
250700,SANTA ROSA,SUNSET AVE & WEST AVE,95407.0,38.42750512,-122.7286485
250701,SANTA ROSA,FARMERS LN & HOEN AVE FRONTAGE RD & HWY 12 E,95405.0,38.43516241,-122.68761950000001
250702,SANTA ROSA,COLLEGE AVE & MORGAN ST,95401.0,38.44577885,-122.72255679999999
250703,SANTA ROSA,DOYLE PARK DR & SONOMA AVE,95405.0,38.44162603,-122.6982486
250704,SANTA ROSA,COLLEGE AVE & E ST & KING ST,95404.0,38.44546397,-122.71089909999999
250705,SANTA ROSA,BROOKWOOD AVE & SONOMA AVE,95404.0,38.44036347,-122.70283090000001
250706,SANTA ROSA,MORGAN ST & WASHINGTON ST,95401.0,38.44274724,-122.72123329999998
250707,SANTA ROSA,CLEVELAND AVE & CODDINGTOWN,95401.0,38.45760065,-122.7266173
250708,SANTA ROSA,BROOKWOOD AVE & SONOMA AVE,95404.0,38.44036347,-122.70283090000001
250709,SANTA ROSA,N DUTTON AVE & TESCONI CIR,95401.0,38.44943332,-122.73322350000001
250710,SANTA ROSA,DUTTON AVE & WALKHAM PL,95407.0,38.4280234,-122.7250038
250711,SANTA ROSA,CLARK ST & S E ST,95404.0,38.43698542,-122.70643600000001
250712,SANTA ROSA,FARMERS LN & MIDWAY DR,95405.0,38.4458612,-122.68794270000001
250713,SANTA ROSA,DELPORT AVE & PAGE CT,95407.0,38.42372005,-122.73043349999999
250714,SANTA ROSA,KING ST & ROYAL ST,95404.0,38.44603838,-122.7108768
250715,SANTA ROSA,ROYAL ST & WRIGHT ST,95404.0,38.445991799999994,-122.7096136
250716,SANTA ROSA,INDUSTRIAL DR & PINER RD,95403.0,38.47148370000001,-122.73962809999999
250717,SANTA ROSA,OAKMONT DR & WHITE OAK DR,95409.0,38.44098107,-122.6042202
250718,SANTA ROSA,COMPADRE DR & NEOTOMAS AVE,95405.0,38.43023821,-122.6720078
250719,SANTA ROSA,SEBASTOPOL RD & STONY POINT RD,95407.0,38.42685471,-122.7413163
250720,SANTA ROSA,MCMINN AVE & ROSELAND AVE & SEBASTOPOL RD,95407.0,38.42894733,-122.73236999999999
250721,SANTA ROSA,KAWANA SPRINGS RD & PETALUMA HILL RD,95404.0,38.41649031,-122.70427279999998
250722,SANTA ROSA,HWY 12 & MISSION BLVD,95409.0,38.45873641,-122.67438670000001
250723,SANTA ROSA,BAKER AVE & CORBY AVE,95407.0,38.42077055,-122.71735149999999
250724,SANTA ROSA,FRANQUETTE AVE & SONOMA AVE,95405.0,38.44608487,-122.6820192
250725,SANTA ROSA,ADOBE DR & SHADYOAK DR,95404.0,38.46065237,-122.6799074
250726,SANTA ROSA,HAHMAN DR & MONTGOMERY DR,95405.0,38.44701863,-122.6863759
250727,SANTA ROSA,SEBASTOPOL RD & STONY POINT RD,95407.0,38.42685471,-122.7413163
250728,SANTA ROSA,COLLEGE AVE & GLENN ST,95401.0,38.44572374,-122.72041010000001
250729,SANTA ROSA,TROWBRIDGE ST & UMLAND DR,95401.0,38.438448,-122.73164799999999
250730,SANTA ROSA,W COLLEGE AVE & WILD ROSE DR,95401.0,38.4453395,-122.7417051
250731,SANTA ROSA,CALICO LN & KAWANA SPRINGS RD,95407.0,38.41646151,-122.71112859999998
250732,SANTA ROSA,COLLEGE AVE & GLENN ST,95401.0,38.44572374,-122.72041010000001
250733,SANTA ROSA,BARHAM AVE & LOTUS CT,95404.0,38.42739284,-122.71183359999999
250734,SANTA ROSA,STEELE WAY & W STEELE LN,95403.0,38.45996992,-122.7320428
250735,SANTA ROSA,2ND ST & SANTA ROSA AVE,95404.0,38.43903444,-122.71295049999999
250736,SANTA ROSA,HAHMAN DR & MIDWAY DR,95405.0,38.44635696,-122.68615
250737,SANTA ROSA,CANDACE AVE & RANDALL LN,95409.0,38.46031705,-122.674472
250738,SANTA ROSA,CHANATE RD & NIELSEN RD,95404.0,38.46854539,-122.710472
250739,SANTA ROSA,SAN JOAQUIN CT & SAN PABLO CT & WREN DR,95401.0,38.4309164,-122.76724469999999
250740,SANTA ROSA,CHANATE RD & HOSPITAL,95404.0,38.46840455,-122.70757859999999
250741,SANTA ROSA,MEADOW WAY & TAYLOR VIEW DR,95404.0,38.41582069,-122.7080223
250742,SANTA ROSA,GUERNEVILLE RD & RANGE AVE,95401.0,38.45884356,-122.7326085
250743,SANTA ROSA,MCBRIDE LN & W STEELE LN,95403.0,38.45998549,-122.7302449
250744,SANTA ROSA,FARMERS LN & LONG DR,95405.0,38.45029799,-122.68860159999998
250745,SANTA ROSA,LAKE VIEW DR & YULUPA AVE,95405.0,38.419969,-122.664693
250746,SANTA ROSA,HWY 12 & PROSPECT AVE,95409.0,38.45969611,-122.67267859999998
250747,SANTA ROSA,HEALDSBURG AVE & LINCOLN ST,95401.0,38.44531078,-122.71774199999999
250748,SANTA ROSA,DUTTON AVE & EB DUTTON AV OFFRAMP & EB DUTTON AV ONRAMP,95407.0,38.43263618,-122.7260264
250749,SANTA ROSA,BLUE SKY LN & SILVER SPUR DR,95407.0,38.41164352,-122.73429080000001
250750,SANTA ROSA,COLLEGE AVE & ORCHARD ST,95404.0,38.44554349,-122.71352350000001
250751,SANTA ROSA,4TH ST & CHINN ST,95404.0,38.44379613,-122.706748
250752,SANTA ROSA,HUGHES AVE & MCMINN AVE,95407.0,38.42568262,-122.7319736
250753,SANTA ROSA,S BOAS DR & SANTA ROSA CREEK DR,95409.0,38.46286679999999,-122.65769440000001
250754,SANTA ROSA,FULTON RD & GUERNEVILLE RD,95403.0,38.45254856,-122.7696375
250755,SANTA ROSA,MONTGOMERY DR & SHADOW LN & SUMMERFIELD RD,95405.0,38.45496838,-122.6721729
250756,SANTA ROSA,SB STEELE LN OFFRAMP & SB STEELE LN ONRAMP & STEELE LN & W STEELE LN,95403.0,38.45993819,-122.7267705
250757,SANTA ROSA,BELLEVUE AVE & WILJAN CT,95407.0,38.40183589,-122.7198058
250758,SANTA ROSA,STONY POINT PLZ & STONY POINT RD,95407.0,38.42866101,-122.74153390000002
250759,SANTA ROSA,DUTTON AVE & HEARN AVE,95407.0,38.41433572,-122.7234498
250760,SANTA ROSA,FARMERS LN & LONG DR,95405.0,38.45029799,-122.68860159999998
250761,SANTA ROSA,CLEVELAND AVE & TERRY LN,95403.0,38.46421777,-122.72841559999999
250762,SANTA ROSA,HWY 12 & MISSION BLVD,95409.0,38.45873641,-122.67438670000001
250763,SANTA ROSA,FAIRGRAVE AVE & YEAGER DR,95407.0,38.41116029999999,-122.7591804
250764,SANTA ROSA,3RD ST & OLD COURTHOUSE SQ,95404.0,38.43940599,-122.7139777
250765,SANTA ROSA,RIDLEY AVE & W COLLEGE AVE,95401.0,38.445236799999996,-122.74604140000001
250766,SANTA ROSA,HUMBOLDT ST & SPENCER AVE,95404.0,38.45061781,-122.7145354
250767,SANTA ROSA,DUTTON AVE & EB DUTTON AV OFFRAMP & EB DUTTON AV ONRAMP,95407.0,38.43263618,-122.7260264
250768,SANTA ROSA,FINLEY AVE & S WRIGHT RD,95407.0,38.41976738,-122.7689233
250769,SANTA ROSA,CORBY AVE & COTTONWOOD DR,95407.0,38.4171506,-122.7175098
250770,SANTA ROSA,CIRCADIAN WAY & CORPORATE CENTER PKWY & MERCURY WAY,95407.0,38.42148789,-122.7528801
250771,SANTA ROSA,SB STEELE LN OFFRAMP & SB STEELE LN ONRAMP & STEELE LN & W STEELE LN,95403.0,38.45993819,-122.7267705
250772,SANTA ROSA,11TH ST & CLEVELAND AVE,95401.0,38.44421942,-122.7265969
250773,SANTA ROSA,GUERNEVILLE RD & WEST OAK CIR,95401.0,38.45255091,-122.77187240000002
250774,SANTA ROSA,BENNETT VALLEY RD & S E ST,95404.0,38.4323645,-122.704449
250775,SANTA ROSA,HOEN AVE & SONOMA AVE,95405.0,38.44265053,-122.6945043
250776,SANTA ROSA,STONY POINT RD & YUBA DR,95407.0,38.40713665,-122.74139550000001
250777,SANTA ROSA,GEORGIA ST & STEVENSON ST,95404.0,38.43469225,-122.7029966
250778,SANTA ROSA,SEBASTOPOL RD & STONY POINT RD,95407.0,38.42685471,-122.7413163
250779,SANTA ROSA,ROYAL ST & WRIGHT ST,95404.0,38.445991799999994,-122.7096136
250780,SANTA ROSA,STONY POINT RD & W 3RD ST,95401.0,38.43379484,-122.74240049999999
250781,SANTA ROSA,BEVERLY WAY & HEXEM AVE,95404.0,38.4617073,-122.7055625
250782,SANTA ROSA,APPLE CREEK LN & N DUTTON AVE,95401.0,38.43541921,-122.7277581
250783,SANTA ROSA,3RD ST & SANTA ROSA AVE,95404.0,38.43965855,-122.71341480000001
250784,SANTA ROSA,MONTECITO BLVD & MONTECITO CTR,95409.0,38.47496921,-122.6745622
250785,SANTA ROSA,HAHMAN DR & MATANZAS WAY,95405.0,38.43980197,-122.6853689
250786,SANTA ROSA,MCBRIDE LN & W STEELE LN,95403.0,38.45998549,-122.7302449
250787,SANTA ROSA,JUILLIARD PARK DR & SANTA ROSA AVE,95404.0,38.43459246,-122.7119232
250788,SANTA ROSA,GUERNEVILLE RD & MARLOW RD,95403.0,38.45258756,-122.7513351
250789,SANTA ROSA,MCBRIDE LN & W STEELE LN,95403.0,38.45998549,-122.7302449
250790,SANTA ROSA,4TH ST & MENDOCINO AVE & SANTA ROSA AVE,95404.0,38.44046206,-122.7140115
250791,SANTA ROSA,10TH ST & MORGAN ST,95401.0,38.44363803,-122.721861
250792,SANTA ROSA,CHESTNUT ST & SEBASTOPOL RD,95407.0,38.43193924,-122.7196893
250793,SANTA ROSA,CODDINGTOWN & GUERNEVILLE RD & STEELE WAY,95403.0,38.45938071,-122.73149309999998
250794,SANTA ROSA,GUERNEVILLE RD & MARLOW RD,95403.0,38.45258756,-122.7513351
250795,SANTA ROSA,7TH ST & B ST,95401.0,38.44197802,-122.71732620000002
250796,SANTA ROSA,HAZEL ST & OLIVE ST,95401.0,38.43406067,-122.7192558
250797,SANTA ROSA,4TH ST & PIERCE ST,95404.0,38.44474263,-122.70504150000001
250798,SANTA ROSA,9TH ST & TRACKS & W 9TH ST,95401.0,38.44185529,-122.7247722
250799,SANTA ROSA,AVENIDA DE LAS BRISAS & LAKE VIEW DR,95405.0,38.42289815,-122.66758259999999
250800,SANTA ROSA,DONAHUE ST & W 9TH ST,95401.0,38.44172137,-122.7254481
250801,SANTA ROSA,FARMERS LN & MAGOWAN DR,95405.0,38.44520683,-122.68781979999999
250802,SANTA ROSA,ALOHA LN & RUSSELL AVE,95403.0,38.46909751,-122.7393386
250803,SANTA ROSA,CARR AVE & MENDOCINO AVE,95401.0,38.45658811,-122.7172915
250804,SANTA ROSA,GLENN ST & RIDGWAY AVE,95401.0,38.449765500000005,-122.7202701
250805,SANTA ROSA,SANTA ROSA AVE & SONOMA AVE,95404.0,38.43665196,-122.71227809999999
250806,SANTA ROSA,9TH ST & CLEVELAND AVE & WILSON ST,95401.0,38.44198325,-122.72407240000001
250807,SANTA ROSA,ADMINISTRATION DR & VENTURA AVE,95403.0,38.46518941,-122.72434309999998
250808,SANTA ROSA,PETERSON LN & VELMA AVE,95403.0,38.44912358,-122.7660182
250809,SANTA ROSA,LAUREL ST & ORANGE ST,95401.0,38.43340654,-122.7177831
250810,SANTA ROSA,9TH ST & DAVIS ST,95401.0,38.44227895,-122.72239669999999
250811,SANTA ROSA,SANTA ANA CIR & SANTA ANA DR,95404.0,38.4223928,-122.706698
250812,SANTA ROSA,FARMERS LN & LONG DR,95405.0,38.45029799,-122.68860159999998
250813,SANTA ROSA,SB STEELE LN OFFRAMP & SB STEELE LN ONRAMP & STEELE LN & W STEELE LN,95403.0,38.45993819,-122.7267705
250814,SANTA ROSA,OLIVE ST & RAILROAD ST,95401.0,38.43466572,-122.71957340000002
250815,SANTA ROSA,CORBY AVE & TALMADGE DR,95407.0,38.40674665,-122.71640320000002
250816,SANTA ROSA,NORTHCOAST ST & W STEELE LN,95403.0,38.4598705,-122.74150900000001
250817,SANTA ROSA,FARMERS LN & PATIO CT,95405.0,38.44173424,-122.68725659999998
250818,SANTA ROSA,BEAVER ST & NASON ST,95404.0,38.44963471,-122.712143
250819,SANTA ROSA,9TH ST & DAVIS ST,95401.0,38.44227895,-122.72239669999999
250820,SANTA ROSA,NORTH ST & SPENCER AVE,95404.0,38.45062192,-122.7080525
250821,SANTA ROSA,JEFFERSON ST & W 7TH ST,95401.0,38.43850516,-122.7243942
250822,SANTA ROSA,14TH ST & SPRING ST,95404.0,38.448201399999995,-122.70268100000001
250823,SANTA ROSA,HEWETT ST & MADISON ST,95401.0,38.43860065,-122.7262751
250824,SANTA ROSA,HEWETT ST & N DUTTON AVE,95401.0,38.43750841,-122.72865700000001
250825,SANTA ROSA,9TH ST & DAVIS ST,95401.0,38.44227895,-122.72239669999999
250826,SANTA ROSA,BANYAN ST & HOLLY PARK WAY,95403.0,38.47509824,-122.74233570000001
250827,SANTA ROSA,CAMINO CT & ECHO LAKE WAY,95401.0,38.43923644,-122.7681947
250828,SANTA ROSA,14TH ST & SPRING ST,95404.0,38.448201399999995,-122.70268100000001
250829,SANTA ROSA,HEWETT ST & UMLAND DR,95401.0,38.437075,-122.734909
250830,SANTA ROSA,KAWANA SPRINGS RD & SANTA ROSA AVE,95407.0,38.41644952,-122.7135188
250831,SANTA ROSA,MCBRIDE LN & W STEELE LN,95403.0,38.45998549,-122.7302449
250832,SANTA ROSA,DAWSON RD & MENDOCINO AVE,95403.0,38.47297747,-122.72614070000002
250833,SANTA ROSA,14TH ST & SPRING ST,95404.0,38.448201399999995,-122.70268100000001
250834,SANTA ROSA,5TH ST & HOPE ST,95404.0,38.44389693,-122.708675
250835,SANTA ROSA,OWLS PERCH PL & RATERS DR,95409.0,38.46491479,-122.6436368
250836,SANTA ROSA,STONY POINT PLZ & STONY POINT RD,95407.0,38.42866101,-122.74153390000002
250837,SANTA ROSA,14TH ST & SPRING ST,95404.0,38.448201399999995,-122.70268100000001
250838,SANTA ROSA,ROUND BARN BLVD & ROUND BARN CIR,95403.0,38.478458,-122.728406
250839,SANTA ROSA,PACIFIC AVE & STEWART ST,95404.0,38.45307557,-122.70612479999998
250840,SANTA ROSA,FRANKLIN AVE & GAY ST,95404.0,38.46101047,-122.71060890000001
250841,SANTA ROSA,9TH ST & CLEVELAND AVE & WILSON ST,95401.0,38.44198325,-122.72407240000001
250842,SANTA ROSA,BRONCO ST & FLORAL WAY,95403.0,38.46382977,-122.76461429999999
250843,SANTA ROSA,HEWETT ST & POLK ST,95401.0,38.43805204,-122.7275209
250844,SANTA ROSA,BENTON ST & KING ST,95404.0,38.44766894,-122.7108108
250845,SANTA ROSA,BEAVER LN & KING ST,95404.0,38.44722356,-122.71082679999999
250846,SANTA ROSA,NORTH ST & ROYAL ST,95404.0,38.44596374,-122.7082414
250847,SANTA ROSA,BUCKINGHAM DR & ORANGE ST,95401.0,38.4346687,-122.71825890000001
250848,SANTA ROSA,JENNINGS AVE & KELLY ST,95401.0,38.45044336,-122.7407971
250849,SANTA ROSA,BROOKWOOD AVE & SONOMA AVE,95404.0,38.44036347,-122.70283090000001
250850,SANTA ROSA,HUMBOLDT ST & MCCONNELL AVE,95404.0,38.4546981,-122.7143578
250851,SANTA ROSA,CODDINGTOWN & GUERNEVILLE RD & STEELE WAY,95403.0,38.45938071,-122.73149309999998
250852,SANTA ROSA,KERNEY ST & LANCE DR,95401.0,38.45196232,-122.73812269999999
250853,SANTA ROSA,MENDOCINO AVE & SILVA AVE,95401.0,38.45880608,-122.717197
250854,SANTA ROSA,B ST & KLUTE ST,95401.0,38.44476521,-122.71873729999999
250855,SANTA ROSA,RICHMOND DR & SALEM AVE,95401.0,38.45956577,-122.7190646
250856,SANTA ROSA,HUGHES AVE & MCMINN AVE,95407.0,38.42568262,-122.7319736
250857,SANTA ROSA,RICHMOND DR & SALEM AVE,95401.0,38.45956577,-122.7190646
250858,SANTA ROSA,KENMORE LN & SEBASTOPOL RD,95407.0,38.42674234,-122.7430645
250859,SANTA ROSA,KATY CT & RANGE AVE,95403.0,38.46499934,-122.73263840000001
250860,SANTA ROSA,CARRILLO ST & GLENN ST,95401.0,38.44674233,-122.72038090000001
250861,SANTA ROSA,CARRILLO ST & MENDOCINO AVE,95401.0,38.44668339,-122.7177146
250862,SANTA ROSA,BARHAM AVE & OLIVE ST,95407.0,38.42685833,-122.71686729999999
250863,SANTA ROSA,FAIRBANKS DR & HALLMARK CT,95403.0,38.45366688,-122.76160130000001
250864,SANTA ROSA,CLEMENT AVE & MENDOCINO AVE,95401.0,38.45909335,-122.71717520000001
250865,SANTA ROSA,FRAZIER AVE & TEMPLE AVE,95404.0,38.42844265,-122.70496270000001
250866,SANTA ROSA,COFFEY LN & CONDO CT,95403.0,38.46738479,-122.74249879999999
250867,SANTA ROSA,KAREN WAY & VALLEJO ST,95404.0,38.4384119,-122.6968065
250868,SANTA ROSA,OAKVIEW CT & STEELE LN,95403.0,38.46067455,-122.7191905
250869,SANTA ROSA,SOUTH AVE & WEST AVE,95407.0,38.42330782,-122.72818810000001
250870,SANTA ROSA,COUNTY CENTER DR & PROFESSIONAL DR,95403.0,38.460974,-122.72521499999999
250871,SANTA ROSA,YUMA CT & YUMA ST,95403.0,38.4612323,-122.75001129999998
250872,SANTA ROSA,COFFEY LN & PINER RD,95403.0,38.46873386,-122.74485390000001
250873,SANTA ROSA,BOCK ST & SUNLIT ANN DR & WALTZER RD,95403.0,38.47218833,-122.7563165
250874,SANTA ROSA,ROMANI CT & SEBASTOPOL RD,95407.0,38.42832818,-122.73498219999999
250875,SANTA ROSA,4TH ST & WILSON ST,95401.0,38.43742039,-122.7207013
250876,SANTA ROSA,HEWETT ST & MADISON ST,95401.0,38.43860065,-122.7262751
250877,SANTA ROSA,HWY 12 & MELITA RD,95409.0,38.46482899,-122.65142639999999
250878,SANTA ROSA,W COLLEGE AVE & WILD ROSE DR,95401.0,38.4453395,-122.7417051
250879,SANTA ROSA,JOLON CT & PHYLLIS ST,95401.0,38.45247367,-122.74091170000001
250880,SANTA ROSA,ARROWHEAD DR & GOLDPAN WAY,95407.0,38.41198082,-122.73778459999998
250881,SANTA ROSA,NORTHPOINT PKWY & THUNDERBOLT WAY,95407.0,38.4161588,-122.74716029999999
250882,SANTA ROSA,MOUNTAIN VISTA PL & OAK TRAIL DR,95409.0,38.43240538,-122.5773524
250883,SANTA ROSA,EVERGLADE DR & SAINT MARY DR,95409.0,38.476134,-122.662796
250884,SANTA ROSA,EXETER DR & PUTNEY DR,95401.0,38.44720004,-122.7574601
250885,SANTA ROSA,GAMAY ST & JENNINGS AVE,95401.0,38.45087261,-122.7567935
250886,SANTA ROSA,BERKELEY DR & STEELE LN,95403.0,38.46032734,-122.7213729
250887,SANTA ROSA,LOMITAS AVE & LOMITAS LN,95404.0,38.46661018,-122.7175294
250888,SANTA ROSA,HARWOOD ST & LANCE DR,95401.0,38.45259823,-122.738419
250889,SANTA ROSA,EVENING WAY & SAINT FRANCIS RD,95409.0,38.46434751,-122.6467949
250890,SANTA ROSA,BLAIR PL & W 9TH ST,95401.0,38.44146345,-122.7398986
250891,SANTA ROSA,FARMERS LN & MONTGOMERY DR,95405.0,38.44654316,-122.6880353
250892,SANTA ROSA,EL ENCANTO CIR & EL ENCANTO WAY,95409.0,38.46711227,-122.6491282
250893,SANTA ROSA,1ST ST & A ST,95401.0,38.43701961,-122.7158571
250894,SANTA ROSA,YERBA BUENA RD & YERBA PL,95409.0,38.47340233,-122.653411
250895,SANTA ROSA,DOWD DR & HEARN AVE & KENTON CT,95407.0,38.41442702,-122.7194817
250896,SANTA ROSA,HILLMONT ST & PIEDMONT DR,95409.0,38.47761084,-122.65335120000002
250897,SANTA ROSA,OLIVE ST & RAILROAD ST,95401.0,38.43466572,-122.71957340000002
250898,SANTA ROSA,SAINT FRANCIS RD & YERBA BUENA RD,95409.0,38.47386873,-122.64501100000001
250899,SANTA ROSA,CANYON DR & DRAKE DR,95409.0,38.47491036,-122.65765090000001
250900,SANTA ROSA,EARDLEY AVE & TAMMY WAY,95401.0,38.447672999999995,-122.736038
250901,SANTA ROSA,RUBICON WAY & TRUCKEE DR,95401.0,38.444698200000005,-122.7577131
250902,SANTA ROSA,3RD ST & BROOKWOOD AVE,95404.0,38.442735299999995,-122.7066597
250903,SANTA ROSA,BOAS DR & HWY 12 & S BOAS DR,95409.0,38.46505683,-122.65784140000001
250904,SANTA ROSA,RANGE AVE & W STEELE LN,95403.0,38.45997358,-122.73261799999999
250905,SANTA ROSA,GREEN WAY & LYNN ROSE CT,95404.0,38.43613938,-122.69486850000001
250906,SANTA ROSA,MIDDLE RINCON RD & SCHOOL ST,95409.0,38.46514621,-122.665481
250907,SANTA ROSA,SAINT FRANCIS RD & YERBA BUENA RD,95409.0,38.47386873,-122.64501100000001
250908,SANTA ROSA,DAWSON RD & MENDOCINO AVE,95403.0,38.47297747,-122.72614070000002
250909,SANTA ROSA,BROOKWOOD AVE & SONOMA AVE,95404.0,38.44036347,-122.70283090000001
250910,SANTA ROSA,BENICIA DR & CULEBRA WAY,95409.0,38.46809151,-122.6703605
250911,SANTA ROSA,GLENBROOK DR & HEATHER DR,95401.0,38.43659068,-122.7376355
250912,SANTA ROSA,CLEVELAND AVE & STATE FARM DR,95403.0,38.46624747,-122.72841409999998
250913,SANTA ROSA,MONTECITO BLVD & RIVERA DR,95409.0,38.47153732,-122.67833049999999
250914,SANTA ROSA,TRACY AVE & WIDGEON CT,95401.0,38.43377214,-122.76926440000001
250915,SANTA ROSA,BROOKWOOD AVE & SONOMA AVE,95404.0,38.44036347,-122.70283090000001
250916,SANTA ROSA,BROOKWOOD AVE & SONOMA AVE,95404.0,38.44036347,-122.70283090000001
250917,SANTA ROSA,LOMITAS AVE & LOMITAS LN,95404.0,38.46661018,-122.7175294
250918,SANTA ROSA,BENNETT VALLEY RD & BETHARDS DR,95405.0,38.42478243,-122.6741475
250919,SANTA ROSA,CREEKSIDE RD & YULUPA AVE,95405.0,38.43292154,-122.66832790000001
250920,SANTA ROSA,IROQUOIS ST & POMO CT & POMO TRL,95403.0,38.45859558,-122.7428354
250921,SANTA ROSA,SANTA ROSA AVE & WHEELER ST,95404.0,38.43460978,-122.71191840000002
250922,SANTA ROSA,SEBASTOPOL RD & STONY POINT RD,95407.0,38.42685471,-122.7413163
250923,SANTA ROSA,9TH ST & MORGAN ST,95401.0,38.44250791,-122.721028
250924,SANTA ROSA,HAMPTON WAY & SEBASTOPOL RD,95407.0,38.42763646,-122.73785079999999
250925,SANTA ROSA,NEOTOMAS AVE & POST RANCH RD,95405.0,38.43324786,-122.6835374
250926,SANTA ROSA,SHADOWHILL DR & SUNNYSLOPE DR,95404.0,38.46535579,-122.68007240000001
250927,SANTA ROSA,BENNETT VALLEY RD & S E ST,95404.0,38.4323645,-122.704449
250928,SANTA ROSA,MAHER DR & SAINT PAUL DR,95405.0,38.42628961,-122.66405870000001
250929,SANTA ROSA,ADMINISTRATION DR & CHANATE RD & MENDOCINO AVE,95403.0,38.46505778,-122.71938200000001
250930,SANTA ROSA,BETHARDS DR & YULUPA AVE,95405.0,38.42608214,-122.66683090000001
250931,SANTA ROSA,BADGER RD & ESTES DR,95409.0,38.48222812,-122.66858159999998
250932,SANTA ROSA,4TH ST & DIAMOND CT,95404.0,38.45082185,-122.6954202
250933,SANTA ROSA,BOSTON CT & HOEN AVE,95405.0,38.43758666,-122.67766670000002
250934,SANTA ROSA,DECKER ST & DONAHUE ST,95401.0,38.4411571,-122.7250719
250935,SANTA ROSA,HOEN AVE & SHEPARD CT,95405.0,38.43891471,-122.6733754
250936,SANTA ROSA,OAK LEAF DR & OLD OAK LN,95409.0,38.43770367,-122.5848683
250937,SANTA ROSA,BEDFORD ST & LANSBURY ST,95404.0,38.41906182,-122.70772959999998
250938,SANTA ROSA,OAK LEAF DR & OLD OAK LN,95409.0,38.43770367,-122.5848683
250939,SANTA ROSA,NORTH VILLAGE DR & VAN PATTER DR,95403.0,38.47837345,-122.76674799999999
250940,SANTA ROSA,9TH ST & DAVIS ST,95401.0,38.44227895,-122.72239669999999
250941,SANTA ROSA,HENDLEY ST & S E ST,95404.0,38.43164326,-122.7053655
250942,SANTA ROSA,DECKER ST & DONAHUE ST,95401.0,38.4411571,-122.7250719
250943,SANTA ROSA,4TH ST & D ST,95404.0,38.44121202,-122.7123828
250944,SANTA ROSA,KAWANA SPRINGS RD & MEADOW WAY,95404.0,38.41646107,-122.70881059999999
250945,SANTA ROSA,DEMEO ST & TROMBETTA ST,95407.0,38.42052806,-122.7383679
250946,SANTA ROSA,MARLOW RD & PINER RD & PINERCREST DR,95403.0,38.46709833,-122.7512155
250947,SANTA ROSA,DUTTON AVE & EB DUTTON AV OFFRAMP & EB DUTTON AV ONRAMP,95407.0,38.43263618,-122.7260264
250948,SANTA ROSA,DUTTON AVE & EB DUTTON AV OFFRAMP & EB DUTTON AV ONRAMP,95407.0,38.43263618,-122.7260264
250949,SANTA ROSA,COLGAN AVE & LA ESPLANADA PL,95404.0,38.42197193,-122.7103328
250950,SANTA ROSA,COLGAN AVE & LA ESPLANADA PL,95404.0,38.42197193,-122.7103328
250951,SANTA ROSA,7TH ST & A ST,95401.0,38.4414495,-122.7190885
250952,SANTA ROSA,BARHAM AVE & SANTA ROSA AVE,95404.0,38.42721652,-122.7132107
250953,SANTA ROSA,CAMPOY ST & MARTINA AVE,95407.0,38.42681045,-122.76371929999999
250954,SANTA ROSA,GUERNEVILLE RD & RANGE AVE,95401.0,38.45884356,-122.7326085
250955,SANTA ROSA,LINCOLN ST & MORGAN ST,95401.0,38.44490192,-122.72260390000001
250956,SANTA ROSA,CHERIE WAY & HOGREFE WAY,95407.0,38.42370008,-122.72302909999999
250957,SANTA ROSA,HARWOOD ST & LANCE DR,95401.0,38.45259823,-122.738419
250958,SANTA ROSA,AIRWAY DR & HOPPER AVE,95403.0,38.47971181,-122.73813090000002
250959,SANTA ROSA,DUTTON AVE & N DUTTON AVE & W 3RD ST,95401.0,38.43412344,-122.72660729999998
250960,SANTA ROSA,EDWARDS AVE & RACCOON LN,95401.0,38.455409499999995,-122.72817260000001
250961,SANTA ROSA,KAWANA SPRINGS RD & MEADOW WAY,95404.0,38.41646107,-122.70881059999999
250962,SANTA ROSA,B ST & LINCOLN ST,95401.0,38.44522915,-122.71871850000001
250963,SANTA ROSA,COORS CT & TALMADGE DR,95407.0,38.40674151,-122.72020479999999
250964,SANTA ROSA,BROOKWOOD AVE & SONOMA AVE,95404.0,38.44036347,-122.70283090000001
250965,SANTA ROSA,BROOKWOOD AVE & SONOMA AVE,95404.0,38.44036347,-122.70283090000001
250966,SANTA ROSA,GAMAY ST & SMOKETREE CT,95403.0,38.45605761,-122.75662240000001
250967,SANTA ROSA,BUTTON CT & PINERCREST DR,95403.0,38.46446004,-122.7669668
250968,SANTA ROSA,AHL PARK CT & SUMMERFIELD RD,95405.0,38.45154944,-122.66967520000001
250969,SANTA ROSA,SAN ANTONIO DR & SUMMERFIELD RD,95405.0,38.43286475,-122.6599383
250970,SANTA ROSA,MICAWBER LN & PEGGOTTY PL,95401.0,38.44403662,-122.76558059999999
250971,SANTA ROSA,NEOTOMAS AVE & TOWNVIEW LN,95405.0,38.43370644,-122.6872527
250972,SANTA ROSA,CAMPBELL DR & LENA PL,95407.0,38.41988248,-122.7410024
250973,SANTA ROSA,BIRCH MEADOW ST & PEBBLECREEK DR,95407.0,38.41066196,-122.7276475
250974,SANTA ROSA,EDWARDS AVE & HERBERT ST,95401.0,38.45406102,-122.7340969
250975,SANTA ROSA,CANDACE AVE & RANDALL LN,95409.0,38.46031705,-122.674472
250976,SANTA ROSA,FARMERS LN & VALLEJO ST,95405.0,38.43776289,-122.6873821
250977,SANTA ROSA,3RD ST & E ST,95404.0,38.44114633,-122.71012549999999
250978,SANTA ROSA,4TH ST & B ST,95401.0,38.43971531,-122.71565840000001
250979,SANTA ROSA,FOUNTAINGROVE PKWY & ROCKY POINT WAY & SEDGEMOORE DR,95404.0,38.48780638,-122.6935557
250980,SANTA ROSA,LOMBARD AVE & MARIT DR,95409.0,38.47003602,-122.6476845
250981,SANTA ROSA,CHANATE RD & PARKER HILL RD,95404.0,38.47141592,-122.70328640000001
250982,SANTA ROSA,EDWARDS AVE & RANGE AVE,95401.0,38.45437446,-122.7321686
250983,SANTA ROSA,PETERSON LN & PINERCREST DR,95403.0,38.4695314,-122.7627481
250984,SANTA ROSA,BONITA VISTA DR & SLEEPY HOLLOW DR,95404.0,38.47571229,-122.6995967
250985,SANTA ROSA,HEIDI PL & W STEELE LN,95403.0,38.45998099,-122.73801110000001
250986,SANTA ROSA,JENNINGS AVE & RANGE AVE,95401.0,38.452966499999995,-122.731721
250987,SANTA ROSA,DUTTON AVE & SEBASTOPOL RD,95407.0,38.43059702,-122.7253189
250988,SANTA ROSA,BRIGGS AVE & FRANCES ST & RANGE AVE,95401.0,38.45032099,-122.728866
250989,SANTA ROSA,BROOKWOOD AVE & SONOMA AVE,95404.0,38.44036347,-122.70283090000001
250990,SANTA ROSA,SARACEN RD & W 9TH ST,95401.0,38.44165364,-122.7306304
250991,SANTA ROSA,MONROE ST & PARK ST,95404.0,38.45214538,-122.7052618
250992,SANTA ROSA,FULTON RD & GUERNEVILLE RD,95403.0,38.45254856,-122.7696375
250993,SANTA ROSA,MILICENT WAY & SANTA ROSA AVE,95407.0,38.42030020000001,-122.71351090000002
250994,SANTA ROSA,13TH ST & BENTON ST & NORTH ST,95404.0,38.44759175,-122.7082288
250995,SANTA ROSA,APOLLO WAY & CIRCADIAN WAY & CORPORATE CENTER PKWY,95407.0,38.41962238,-122.7530904
250996,SANTA ROSA,MAJOR DR & NORDYKE AVE,95403.0,38.463302299999995,-122.72369590000001
250997,SANTA ROSA,BIWANA DR & LIANA DR,95407.0,38.41831872,-122.7306475
250998,SANTA ROSA,BROOKWOOD AVE & SONOMA AVE,95404.0,38.44036347,-122.70283090000001
250999,SANTA ROSA,HENDLEY ST & MILL ST,95404.0,38.43447533,-122.70688740000001
251000,SANTA ROSA,TRACKS & W STEELE LN,95403.0,38.45997829,-122.7406116
251001,SANTA ROSA,CLEVELAND AVE & TERRY LN,95403.0,38.46421777,-122.72841559999999
251002,SANTA ROSA,CORNELL DR & DARTMOUTH DR,95405.0,38.44175946,-122.67821229999998
251003,SANTA ROSA,BEAR CUB WAY & MENDOCINO AVE & PACIFIC AVE,95401.0,38.45336896,-122.717404
251004,SANTA ROSA,BRIARFIELD PL & LOS OLIVOS RD & QUAIL CT,95404.0,38.46447702,-122.6866385
251005,SANTA ROSA,ALDERBROOK DR & PARKER DR,95405.0,38.445265,-122.69515890000001
251006,SANTA ROSA,BARNES RD & CAMINO DEL PRADO,95403.0,38.47583196,-122.7535165
251007,SANTA ROSA,NB YOLANDA AV OFFRAMP & NB YOLANDA AV ONRAMP & SANTA ROSA AVE & YOLANDA AVE,95407.0,38.413219700000006,-122.7135365
251008,SANTA ROSA,8TH ST & A ST,95401.0,38.44204309,-122.71949609999999
251009,SANTA ROSA,ALBANY DR & RICHMOND DR,95401.0,38.45884532,-122.72293140000001
251010,SANTA ROSA,KINGWOOD ST & W 9TH ST,95401.0,38.44167378,-122.73148710000001
251011,SANTA ROSA,BIRCH MEADOW ST & TUXHORN DR,95407.0,38.40974005,-122.7277182
251012,SANTA ROSA,MESA WAY & STONY POINT RD,95407.0,38.42432785,-122.7409682
251013,SANTA ROSA,DEL REY CT & SAN ALESO CT & SAN RAMON WAY,95409.0,38.4719608,-122.6369199
251014,SANTA ROSA,CARRILLO ST & CLEVELAND AVE,95401.0,38.44691519,-122.72659569999999
251015,SANTA ROSA,SEBASTOPOL RD & WEST AVE,95407.0,38.42978491,-122.72890819999999
251016,SANTA ROSA,HOEN AVE & TAHOE DR,95405.0,38.44025773,-122.66958190000001
251017,SANTA ROSA,CEDAR ROCK LN & HOLLY CREEK DR,95404.0,38.41132418,-122.7086452
251018,SANTA ROSA,PARKER DR & TALBOT AVE,95405.0,38.444633700000004,-122.6979328
251019,SANTA ROSA,LINK LN & W COLLEGE AVE,95401.0,38.44563699,-122.7342003
251020,SANTA ROSA,1ST ST & A ST,95401.0,38.43701961,-122.7158571
251021,SANTA ROSA,SAN ANTONIO DR & SUMMERFIELD RD,95405.0,38.43286475,-122.6599383
251022,SANTA ROSA,OLDFIELD WAY & WALL PL,95401.0,38.43294769,-122.7445656
251023,SANTA ROSA,LORETTA WAY & MARY ST,95403.0,38.47366415,-122.7332023
251024,SANTA ROSA,OLIVE ST & SEBASTOPOL RD,95407.0,38.432080299999996,-122.7190497
251025,SANTA ROSA,LORETTA WAY & MARGARET ST,95403.0,38.47395253,-122.73362659999998
251026,SANTA ROSA,CHIANTI DR & RIESLING WAY,95403.0,38.45108534,-122.7550332
251027,SANTA ROSA,COFFEY LN & PINER RD,95403.0,38.46873386,-122.74485390000001
251028,SANTA ROSA,HAMPTON WAY & SEBASTOPOL RD,95407.0,38.42763646,-122.73785079999999
251029,SANTA ROSA,FRANQUETTE AVE & HOEN AVE,95405.0,38.43759163,-122.67906529999999
251030,SANTA ROSA,COUNTY CENTER DR & PROFESSIONAL DR,95403.0,38.460974,-122.72521499999999
251031,SANTA ROSA,PETALUMA HILL RD & SANTA ROSA AVE,95404.0,38.42975173,-122.71133049999999
251032,SANTA ROSA,BAY VILLAGE CIR & PINER RD,95403.0,38.46731621,-122.74864280000001
251033,SANTA ROSA,GIFFEN AVE & LOMBARDI LN,95407.0,38.41759954,-122.7472209
251034,SANTA ROSA,FULTON RD & OCCIDENTAL RD,95401.0,38.42902192,-122.76938090000002
251035,SANTA ROSA,SPENCER AVE & WRIGHT ST,95404.0,38.45057399,-122.70947179999999
251036,SANTA ROSA,B ST & LINCOLN ST,95401.0,38.44522915,-122.71871850000001
251037,SANTA ROSA,BORON AVE & DUTTON MEADOW,95407.0,38.40603307,-122.72943470000001
251038,SANTA ROSA,5TH ST & MORGAN ST,95401.0,38.439145399999994,-122.7188437
251039,SANTA ROSA,GLORIA DR & WESTWOOD DR,95407.0,38.41555057,-122.73021570000002
251040,SANTA ROSA,BAKER AVE & NB BAKER AV OFFRAMP & NB BAKER AV ONRAMP,95407.0,38.42135934,-122.7147642
251041,SANTA ROSA,COLLEGE AVE & TRACKS & W COLLEGE AVE,95401.0,38.44592197,-122.7283248
251042,SANTA ROSA,BELHAVEN CIR & BELHAVEN CT,95409.0,38.43874976,-122.595598
251043,SANTA ROSA,MENDOCINO AVE & SCHURMAN DR,95403.0,38.46311909,-122.7182737
251044,SANTA ROSA,COMPADRE DR & NEOTOMAS AVE,95405.0,38.43023821,-122.6720078
251045,SANTA ROSA,GLENBROOK DR & SANDALWOOD CT,95401.0,38.43708074,-122.7408241
251046,SANTA ROSA,SHERIFFS DEPT EAST & SHERIFFS DEPT NORTH,95403.0,38.46852999,-122.7232521
251047,SANTA ROSA,COUNTY CENTER DR & PROFESSIONAL DR,95403.0,38.460974,-122.72521499999999
251048,SANTA ROSA,STEELE WAY & W STEELE LN,95403.0,38.45996937,-122.73166409999999
251049,SANTA ROSA,MILICENT WAY & SANTA ROSA AVE,95407.0,38.42030020000001,-122.71351090000002
251050,SANTA ROSA,DALE CT & HEALEY CT & WOODCREST DR,95401.0,38.44410533,-122.7456986
251051,SANTA ROSA,CORBY AVE & SB HEARN AV OFFRAMP & SB HEARN AV ONRAMP,95407.0,38.41333341,-122.7171869
251052,SANTA ROSA,BROWN ST & OAK ST,95404.0,38.43259931,-122.7089588
251053,SANTA ROSA,APPLE VALLEY LN & IROQUOIS ST & W STEELE LN,95403.0,38.45974038,-122.7429957
251054,SANTA ROSA,SAN JOAQUIN CT & SAN PABLO CT & WREN DR,95401.0,38.4309164,-122.76724469999999
251055,SANTA ROSA,DELPORT AVE & MCMINN AVE,95407.0,38.42354054,-122.731278
251056,SANTA ROSA,MCBRIDE LN & W STEELE LN,95403.0,38.45998549,-122.7302449
251057,SANTA ROSA,GREENFIELD CIR & OAKMONT DR,95409.0,38.43470029,-122.5964571
251058,SANTA ROSA,DELPORT AVE & PAGE CT,95407.0,38.42372005,-122.73043349999999
251059,SANTA ROSA,STONY POINT PLZ & STONY POINT RD,95407.0,38.42866101,-122.74153390000002
251060,SANTA ROSA,CORBY AVE & CORBY AVENUE EXT,95407.0,38.412440600000004,-122.71658559999999
251061,SANTA ROSA,CORBY AVE & HEARN AVE,95407.0,38.41429399,-122.71748640000001
251062,SANTA ROSA,COMFREY PL & PARKTRAIL DR,95405.0,38.44081573,-122.65313859999999
251063,SANTA ROSA,NORTHVIEW ST & SAN MIGUEL AVE,95403.0,38.47303669,-122.76481229999999
251064,SANTA ROSA,CLEVELAND AVE & TERRY LN,95403.0,38.46421777,-122.72841559999999
251065,SANTA ROSA,OLDFIELD WAY & WALL PL,95401.0,38.43294769,-122.7445656
251066,SANTA ROSA,MILTON ST & TEMPLE AVE,95404.0,38.42748104,-122.7044132
251067,SANTA ROSA,DOYLE PARK DR & SONOMA AVE,95405.0,38.44162603,-122.6982486
251068,SANTA ROSA,COLLEGE AVE & MENDOCINO AVE,95401.0,38.44564739,-122.7177125
251069,SANTA ROSA,HEALDSBURG AVE & LINCOLN ST,95401.0,38.44531078,-122.71774199999999
251070,SANTA ROSA,CROSSPOINT AVE & GAMAY ST,95403.0,38.45533972,-122.7566811
251071,SANTA ROSA,SENNA DR & W 3RD ST,95401.0,38.4379375,-122.7615328
251072,SANTA ROSA,7TH ST & HUMBOLDT ST,95404.0,38.44306762,-122.7140585
251073,SANTA ROSA,CHARLES ST & SANTA ROSA AVE,95404.0,38.43535628,-122.7120801
251074,SANTA ROSA,BENNETT VALLEY RD & RUTLEDGE AVE,95404.0,38.430666200000005,-122.71064809999999
251075,SANTA ROSA,CHANATE RD & HOSPITAL,95404.0,38.46840455,-122.70757859999999
251076,SANTA ROSA,OLIVE ST & POPLAR ST,95407.0,38.42604873,-122.7169398
251077,SANTA ROSA,BAKER AVE & COLGAN AVE & SANTA ROSA AVE,95404.0,38.42120417,-122.71350090000001
251078,SANTA ROSA,E ROBLES AVE & SANTA ROSA AVE,95407.0,38.39441901,-122.7135334
251079,SANTA ROSA,COUNTY CENTER DR & ILLINOIS AVE & STEELE LN,95403.0,38.45998808,-122.72469280000001
251080,SANTA ROSA,CARRINGTON ST & OLIVE ST,95407.0,38.42860548,-122.7172207
251081,SANTA ROSA,KATY CT & RANGE AVE,95403.0,38.46499934,-122.73263840000001
251082,SANTA ROSA,BAKER AVE & COLGAN AVE & SANTA ROSA AVE,95404.0,38.42120417,-122.71350090000001
251083,SANTA ROSA,SONOMA AVE & SOTOYOME ST,95405.0,38.44091148,-122.70085220000001
251084,SANTA ROSA,SONOMA AVE & WYOMING DR,95405.0,38.44933362,-122.6702086
251085,SANTA ROSA,PETERSON LN & VELMA AVE,95403.0,38.44912358,-122.7660182
251086,SANTA ROSA,EDWARDS AVE & RACCOON LN,95401.0,38.455409499999995,-122.72817260000001
251087,SANTA ROSA,12TH ST & 4TH ST & SPRING ST & STANFORD ST,95404.0,38.44630465,-122.70274740000002
251088,SANTA ROSA,2ND ST & MONTGOMERY DR,95404.0,38.44292593,-122.70452560000001
251089,SANTA ROSA,HAMPTON WAY & SEBASTOPOL RD,95407.0,38.42763646,-122.73785079999999
251090,SANTA ROSA,EDWARDS AVE & HERBERT ST,95401.0,38.45406102,-122.7340969
251091,SANTA ROSA,PARAMONT ST & SAHARA ST,95403.0,38.47344083,-122.7271309
251092,SANTA ROSA,COFFEY LN & PINER RD,95403.0,38.46873386,-122.74485390000001
251093,SANTA ROSA,1ST ST & A ST,95401.0,38.43701961,-122.7158571
251094,SANTA ROSA,TESCONI CIR & TESCONI CT,95401.0,38.44786278,-122.7349648
251095,SANTA ROSA,GADS HILL ST & SPENLOW RD,95401.0,38.44233018,-122.76391869999999
251096,SANTA ROSA,DUTTON AVE & HEARN AVE,95407.0,38.41433572,-122.7234498
251097,SANTA ROSA,FARMERS LN & LONG DR,95405.0,38.45029799,-122.68860159999998
251098,SANTA ROSA,2ND ST & SANTA ROSA AVE,95404.0,38.43903444,-122.71295049999999
251099,SANTA ROSA,2ND ST & SANTA ROSA AVE,95404.0,38.43903444,-122.71295049999999
251100,SANTA ROSA,CHERRY ST & HUMBOLDT ST,95404.0,38.44461788,-122.71481670000001
251101,SANTA ROSA,CREEKSIDE RD & RAINIER AVE,95405.0,38.43205617,-122.66577209999998
251102,SANTA ROSA,4TH ST & E ST,95404.0,38.4419527,-122.7107402
251103,SANTA ROSA,LORETTA WAY & MARGARET ST,95403.0,38.47395253,-122.73362659999998
251104,SANTA ROSA,STONY POINT PLZ & STONY POINT RD,95407.0,38.42866101,-122.74153390000002
251105,SANTA ROSA,BROOKWOOD AVE & SONOMA AVE,95404.0,38.44036347,-122.70283090000001
251106,SANTA ROSA,FULTON RD & HWY 12 E & HWY 12 W & N WRIGHT RD,95401.0,38.42760143,-122.7691831
251107,SANTA ROSA,4TH ST & BROOKWOOD AVE,95404.0,38.44356872,-122.70722140000001
251108,SANTA ROSA,DOYLE PARK DR & SONOMA AVE,95405.0,38.44166603,-122.6981038
251109,SANTA ROSA,DOYLE PARK DR & SONOMA AVE,95405.0,38.44166603,-122.6981038
251110,SANTA ROSA,10TH ST & B ST,95401.0,38.44392348,-122.7187663
251111,SANTA ROSA,DOYLE PARK DR & SONOMA AVE,95405.0,38.44166603,-122.6981038
251112,SANTA ROSA,7TH ST & DAVIS ST,95401.0,38.440041799999996,-122.7209865
251113,SANTA ROSA,9TH ST & A ST,95401.0,38.44265475,-122.7200034
251114,SANTA ROSA,9TH ST & MORGAN ST,95401.0,38.44250791,-122.721028
251115,SANTA ROSA,ASTON AVE & HENDLEY ST,95404.0,38.42585217,-122.7024686
251116,SANTA ROSA,FULTON RD & OCCIDENTAL RD,95401.0,38.42902192,-122.76938090000002
251117,SANTA ROSA,KAWANA SPRINGS RD & TAYLOR MOUNTAIN PL,95404.0,38.41805432,-122.693335
251118,SANTA ROSA,BENTON ST & GLENN ST,95401.0,38.44797429,-122.72032709999999
251119,SANTA ROSA,CRESTMONT DR & MONTCLAIR DR,95409.0,38.47617295,-122.65103719999999
251120,SANTA ROSA,N DUTTON AVE & TESCONI CIR,95401.0,38.448475,-122.732201
251121,SANTA ROSA,FRANQUETTE AVE & SONOMA AVE,95405.0,38.44608487,-122.6820192
251122,SANTA ROSA,EDGEWATER DR & SILVER STONE LN,95407.0,38.41423203,-122.7436778
251123,SANTA ROSA,SEBASTOPOL RD & WEST AVE,95407.0,38.42978491,-122.72890819999999
251124,SANTA ROSA,COLLEGE AVE & SLATER ST,95404.0,38.44562427,-122.7160877
251125,SANTA ROSA,COLLEGE AVE & MORGAN ST,95401.0,38.44577885,-122.72255679999999
251126,SANTA ROSA,JEFFERSON ST & W 7TH ST,95401.0,38.43850516,-122.7243942
251127,SANTA ROSA,LA PALOMA AVE & ROGERS WAY,95404.0,38.45112279999999,-122.69179640000002
251128,SANTA ROSA,BIRCH MEADOW ST & TUXHORN DR,95407.0,38.40974005,-122.7277182
251129,SANTA ROSA,AARON DR & BROOKDALE DR,95404.0,38.477913,-122.701834
251130,SANTA ROSA,CLEVELAND AVE & GUERNEVILLE RD & W STEELE LN,95401.0,38.45991177,-122.7284087
251131,SANTA ROSA,AVENIDA DE LAS BRISAS & LAKE VIEW DR,95405.0,38.42289815,-122.66758259999999
