,city,Street,ZIP,LAT,LON
236575,SANTA ROSA,9TH ST & A ST,95401.0,38.44265475,-122.7200034
237137,SANTA ROSA,2ND ST & E ST,95404.0,38.44053199,-122.70968880000001
237222,SANTA ROSA,CORBY AVE & HEARN AVE,95407.0,38.41429399,-122.71748640000001
238010,SANTA ROSA,FARMERS LN & HOEN AVE,95405.0,38.4388948,-122.68720800000001
238236,SANTA ROSA,FARMERS LN & PATIO CT,95405.0,38.44173424,-122.68725659999998
238265,SANTA ROSA,HAHMAN DR & MATANZAS WAY,95405.0,38.43980197,-122.6853689
241125,SANTA ROSA,6TH ST & WILSON ST,95401.0,38.43876378,-122.7216926
241126,SANTA ROSA,AIRWAY DR & INDUSTRIAL DR,95403.0,38.47686128,-122.7381217
241127,SANTA ROSA,AIRWAY DR & INDUSTRIAL DR,95403.0,38.47686128,-122.7381217
241128,SANTA ROSA,BETHARDS DR & TACHEVAH DR,95405.0,38.42823724,-122.6639304
241129,SANTA ROSA,LAZZINI AVE & TROMBETTA ST,95407.0,38.42202728,-122.7383565
241130,SANTA ROSA,MISSION BLVD & MISSION CIR & QUIGG DR,95409.0,38.45803531,-122.6729237
241131,SANTA ROSA,PAULIN DR & VENTURA AVE,95403.0,38.46720043,-122.72433079999999
241132,SANTA ROSA,BENTON ST & MENDOCINO AVE,95401.0,38.44788986,-122.7176592
241133,SANTA ROSA,MORGAN ST & RIDGWAY AVE,95401.0,38.44942048,-122.7223808
241134,SANTA ROSA,ASPEN LEAF LN & JENNINGS AVE,95401.0,38.45363033,-122.72840559999999
241135,SANTA ROSA,5TH ST & RILEY ST,95404.0,38.4414286,-122.71379180000001
241136,SANTA ROSA,6TH ST & MORGAN ST & NB SR DOWNTOWN ONRAMP,95401.0,38.43992913,-122.7193773
241137,SANTA ROSA,COFFEY LN & CONDO CT,95403.0,38.46738479,-122.74249879999999
241138,SANTA ROSA,MEADOWRIDGE LN & STONE BRIDGE RD,95409.0,38.44648726,-122.61621840000001
241139,SANTA ROSA,N WRIGHT RD & SEBASTOPOL RD,95407.0,38.42479011,-122.7688835
241140,SANTA ROSA,HOEN AVE & YULUPA AVE,95405.0,38.43955238,-122.67158059999998
241141,SANTA ROSA,PAULIN DR & VENTURA AVE,95403.0,38.46720043,-122.72433079999999
241142,SANTA ROSA,PAULIN DR & VENTURA AVE,95403.0,38.46720043,-122.72433079999999
241143,SANTA ROSA,D ST & SONOMA AVE,95404.0,38.43799433,-122.70998449999999
241144,SANTA ROSA,PAULIN DR & VENTURA AVE,95403.0,38.46720043,-122.72433079999999
241145,SANTA ROSA,2ND ST & SANTA ROSA AVE,95404.0,38.43903444,-122.71295049999999
241146,SANTA ROSA,KASHMIR DR & MONTGOMERY DR,95409.0,38.45863202,-122.6693578
241147,SANTA ROSA,LORETTA WAY & MARGARET ST,95403.0,38.47395253,-122.73362659999998
241148,SANTA ROSA,SWEETGUM CT & SWEETGUM ST,95403.0,38.47586313,-122.7432231
241149,SANTA ROSA,MARLOW CT & MARLOW RD & W STEELE LN,95403.0,38.45977767,-122.75119640000001
241150,SANTA ROSA,MONTECITO LN & RIDGEVIEW DR,95404.0,38.46015483,-122.6984473
241151,SANTA ROSA,BANYAN PL & HOPPER AVE & SKYVIEW DR,95403.0,38.47971264,-122.74219690000001
241152,SANTA ROSA,BROOKWOOD AVE & SONOMA AVE,95404.0,38.44036347,-122.70283090000001
241153,SANTA ROSA,RED OAK CIR & RED OAK DR,95403.0,38.46808497,-122.76084660000001
241154,SANTA ROSA,BAKER AVE & NB BAKER AV OFFRAMP & NB BAKER AV ONRAMP,95407.0,38.42135934,-122.7147642
241155,SANTA ROSA,NEOTOMAS AVE & TAMARISK CT & TAMARISK DR,95405.0,38.42913653,-122.67068370000001
241156,SANTA ROSA,EARDLEY AVE & TAMMY WAY,95401.0,38.447672999999995,-122.736038
241157,SANTA ROSA,CLAREMONT DR & FRANQUETTE AVE,95405.0,38.44535771,-122.68178619999999
241158,SANTA ROSA,MADISON ST & W 6TH ST,95401.0,38.43719253,-122.7252341
241159,SANTA ROSA,ESTRELLA DR & VERDUGO CT,95403.0,38.46477946,-122.73624550000001
241160,SANTA ROSA,S A ST & SONOMA AVE,95401.0,38.43587467,-122.71551409999998
241161,SANTA ROSA,BELLEVUE AVE & TERRIMAY LN,95407.0,38.40172352,-122.71088229999998
241162,SANTA ROSA,HILLARY CT & HOPPER AVE,95403.0,38.4796987,-122.7477757
241163,SANTA ROSA,STONY POINT RD & W 3RD ST,95401.0,38.43379484,-122.74240049999999
241164,SANTA ROSA,JENNINGS AVE & LANCE DR,95401.0,38.45126687,-122.7381591
241165,SANTA ROSA,3RD ST & TRACKS & W 3RD ST,95401.0,38.436027,-122.721355
241166,SANTA ROSA,BROOKWOOD AVE & SONOMA AVE,95404.0,38.44036347,-122.70283090000001
241167,SANTA ROSA,BROOKWOOD AVE & SONOMA AVE,95404.0,38.44036347,-122.70283090000001
241168,SANTA ROSA,CHESTNUT ST & HAZEL ST,95401.0,38.43379235,-122.72040009999999
241169,SANTA ROSA,MILICENT WAY & SANTA ROSA AVE,95407.0,38.42030020000001,-122.71351090000002
241170,SANTA ROSA,CHESTNUT ST & HAZEL ST,95401.0,38.43379235,-122.72040009999999
241171,SANTA ROSA,CALIFORNIA AVE & MONTGOMERY DR & ROSEDALE AVE,95405.0,38.44449001,-122.69554
241172,SANTA ROSA,FAIRWAY KNOLL LN & FIR RIDGE DR & THOMAS LAKE HARRIS DR,95403.0,38.49276084,-122.71116699999999
241173,SANTA ROSA,OLIVE ST & RAILROAD ST,95401.0,38.43466572,-122.71957340000002
241174,SANTA ROSA,VALLEY WEST CT & W 3RD ST,95401.0,38.43695573,-122.7583888
241175,SANTA ROSA,BROOKWOOD AVE & SONOMA AVE,95404.0,38.44036347,-122.70283090000001
241176,SANTA ROSA,FLOWER AVE & SANTA ROSA AVE,95404.0,38.42426474,-122.7135061
241177,SANTA ROSA,MADISON ST & W 6TH ST,95401.0,38.43719253,-122.7252341
241178,SANTA ROSA,KAREN WAY & VALLEJO ST,95404.0,38.4384119,-122.6968065
241179,SANTA ROSA,BLACKHAWK CIR & BRACKEN CT & SOUTHRIDGE DR,95403.0,38.49199636,-122.70650079999999
241180,SANTA ROSA,NORTH VILLAGE DR & SOPHIA DR,95403.0,38.47897983,-122.76920109999999
241181,SANTA ROSA,JANERO DR & MESA WAY,95407.0,38.42505828,-122.73786229999999
241182,SANTA ROSA,3RD ST & SANTA ROSA AVE,95404.0,38.43965855,-122.71341480000001
241183,SANTA ROSA,CHESTNUT ST & HAZEL ST,95401.0,38.43379235,-122.72040009999999
241184,SANTA ROSA,6TH ST & MORGAN ST & NB SR DOWNTOWN ONRAMP,95401.0,38.43992913,-122.7193773
241185,SANTA ROSA,BROOKWOOD AVE & SONOMA AVE,95404.0,38.44036347,-122.70283090000001
241186,SANTA ROSA,CHESTNUT ST & HAZEL ST,95401.0,38.43379235,-122.72040009999999
241187,SANTA ROSA,MONTGOMERY DR & SOTOYOME ST,95405.0,38.44285521,-122.7017068
241188,SANTA ROSA,KATHLEEN CT & SHARON CT,95409.0,38.46116557,-122.64943249999999
241189,SANTA ROSA,SPARROW CREEK ST & W COLLEGE AVE,95401.0,38.44521652,-122.74903090000001
241190,SANTA ROSA,CAMPOY ST & SEBASTOPOL RD,95407.0,38.42519351,-122.7635252
241191,SANTA ROSA,BOAS DR & HWY 12 & S BOAS DR,95409.0,38.46505683,-122.65784140000001
241192,SANTA ROSA,JEFFERSON ST & W 6TH ST,95401.0,38.43779184,-122.7238764
241193,SANTA ROSA,S DAVIS ST & THERESA ST,95407.0,38.427921999999995,-122.715473
241194,SANTA ROSA,BROOKWOOD AVE & SONOMA AVE,95404.0,38.44036347,-122.70283090000001
241195,SANTA ROSA,BOND ST & CONNIE ST,95407.0,38.40586434,-122.7100557
241196,SANTA ROSA,COFFEY LN & GUERNEVILLE RD & HERBERT LN,95403.0,38.45651115,-122.7362721
241197,SANTA ROSA,CLEVELAND AVE & GUERNEVILLE RD & W STEELE LN,95401.0,38.45991177,-122.7284087
241198,SANTA ROSA,8TH ST & TRACKS & W 8TH ST,95401.0,38.440015700000004,-122.7231669
241199,SANTA ROSA,3RD ST & TRACKS & W 3RD ST,95401.0,38.436027,-122.721355
241200,SANTA ROSA,BRUCE CT & JENNINGS AVE,95401.0,38.44963024,-122.74961299999998
241201,SANTA ROSA,FLAT ROCK CIR & WAYVERN DR,95409.0,38.454181,-122.679409
241202,SANTA ROSA,BRUCE CT & JENNINGS AVE,95401.0,38.44963024,-122.74961299999998
241203,SANTA ROSA,APACHE ST & MOHAWK CT & MOHAWK ST,95403.0,38.46210603,-122.74463030000001
241204,SANTA ROSA,BENTON ST & ORCHARD ST,95404.0,38.44775445,-122.71343359999999
241205,SANTA ROSA,BILLIE JEAN ST & MARTINA AVE,95407.0,38.42697318,-122.76163249999999
241206,SANTA ROSA,EDWARDS AVE & HERBERT ST,95401.0,38.45406102,-122.7340969
241207,SANTA ROSA,3RD ST & PIERCE ST,95404.0,38.44403502,-122.70426709999998
241208,SANTA ROSA,FERNWOOD CT & GLENBROOK DR,95401.0,38.43724875,-122.74168600000002
241209,SANTA ROSA,CRYSTAL HILL DR & TURQUOISE WAY,95404.0,38.41911013,-122.7008114
241210,SANTA ROSA,BREEZE WAY & TOKAY ST,95404.0,38.420128999999996,-122.703726
241211,SANTA ROSA,COLGAN AVE & LA ESPLANADA PL,95404.0,38.42197193,-122.7103328
241212,SANTA ROSA,HWY 12 & MOUNTAIN HAWK DR & QUEEN ANNE DR,95409.0,38.46229712,-122.64303079999999
241213,SANTA ROSA,ASTON AVE & ASTON CIR,95404.0,38.42555317,-122.7033124
241214,SANTA ROSA,ASTON CIR & PAYSON WAY,95404.0,38.42461426,-122.70363400000001
241215,SANTA ROSA,BROOKWOOD AVE & SONOMA AVE,95404.0,38.44036347,-122.70283090000001
241216,SANTA ROSA,BARHAM AVE & LOTUS CT,95404.0,38.42739284,-122.71183359999999
241217,SANTA ROSA,BARNETT ST & S DAVIS ST,95407.0,38.43051389,-122.7160332
241218,SANTA ROSA,GARDNER AVE & KENMORE LN,95407.0,38.42325801,-122.7425506
241219,SANTA ROSA,NEOTOMAS AVE & TOWNVIEW LN,95405.0,38.43370644,-122.6872527
241220,SANTA ROSA,BAY VILLAGE CIR & PINER RD,95403.0,38.46731621,-122.74864280000001
241221,SANTA ROSA,BAY VILLAGE CIR & PINER RD,95403.0,38.46731621,-122.74864280000001
241222,SANTA ROSA,PARAMONT ST & SAHARA ST,95403.0,38.47344083,-122.7271309
241223,SANTA ROSA,4TH ST & BROOKWOOD AVE,95404.0,38.44356872,-122.70722140000001
241224,SANTA ROSA,RUTLEDGE AVE & WARE AVE,95404.0,38.42902586,-122.7097084
241225,SANTA ROSA,W 9TH ST & WARREN LN,95401.0,38.44163596,-122.73018
241226,SANTA ROSA,NASON ST & SLATER ST,95404.0,38.44973612,-122.7158952
241227,SANTA ROSA,3RD ST & E ST,95404.0,38.44114633,-122.71012549999999
241228,SANTA ROSA,COFFEY LN & PINER RD,95403.0,38.46873386,-122.74485390000001
241229,SANTA ROSA,LA PALOMA AVE & ROGERS WAY,95404.0,38.45112279999999,-122.69179640000002
241230,SANTA ROSA,4TH ST & OLD COURTHOUSE SQ,95404.0,38.44072571,-122.71343290000002
241231,SANTA ROSA,CLEVELAND AVE & GUERNEVILLE RD & W STEELE LN,95401.0,38.45991177,-122.7284087
241232,SANTA ROSA,CAMINO DEL PRADO & COFFEY MEADOW DR,95403.0,38.4752047,-122.7512038
241233,SANTA ROSA,CHANATE RD & GLEN ECHO DR,95404.0,38.47160605,-122.70231329999999
241234,SANTA ROSA,HWY 12 & INDIAN CREEK DR & JACK LONDON DR,95409.0,38.46469778,-122.6612372
241235,SANTA ROSA,BROOKWOOD AVE & SONOMA AVE,95404.0,38.44036347,-122.70283090000001
241236,SANTA ROSA,FARMERS LN & PATIO CT,95405.0,38.44173424,-122.68725659999998
241237,SANTA ROSA,APPLE CREEK LN & W 3RD ST,95401.0,38.43372932,-122.7286318
241238,SANTA ROSA,KAWANA SPRINGS RD & SANTA ROSA AVE,95407.0,38.41644952,-122.7135188
241239,SANTA ROSA,CARR AVE & ORCHARD ST,95404.0,38.45644078,-122.71292530000001
241240,SANTA ROSA,FLAT ROCK CIR & KINTYRE WAY,95409.0,38.453708,-122.678997
241241,SANTA ROSA,CORBY AVE & HEARN AVE,95407.0,38.41429399,-122.71748640000001
241242,SANTA ROSA,LINK LN & W COLLEGE AVE,95401.0,38.44563699,-122.7342003
241243,SANTA ROSA,FOUNTAINGROVE PKWY & STAGECOACH RD,95403.0,38.48614335,-122.71096899999999
241244,SANTA ROSA,LEISURE PARK CIR & OCCIDENTAL RD,95401.0,38.42973908,-122.7500199
241245,SANTA ROSA,SEBASTOPOL RD & STONY POINT RD,95407.0,38.42685471,-122.7413163
241246,SANTA ROSA,CLEVELAND AVE & CODDINGTOWN,95401.0,38.45760065,-122.7266173
241247,SANTA ROSA,GRAYMONT DR & OAK PARK WAY,95409.0,38.47399517,-122.6580336
241248,SANTA ROSA,N DUTTON AVE & W COLLEGE AVE,95401.0,38.44581039,-122.7304284
241249,SANTA ROSA,DUTTON AVE & SEBASTOPOL RD,95407.0,38.43059702,-122.7253189
241250,SANTA ROSA,ADMINISTRATION DR & COUNTY CENTER DR,95403.0,38.46415311,-122.7258716
241251,SANTA ROSA,GAMAY ST & ZINFANDEL AVE,95403.0,38.45117515,-122.7567936
241252,SANTA ROSA,BOCK ST & DIEGO AVE,95403.0,38.47336914,-122.7541915
241253,SANTA ROSA,POWDERHORN AVE & SANTA ROSA AVE,95407.0,38.40285384,-122.71347800000001
241254,SANTA ROSA,BENNETT VALLEY RD & YULUPA AVE,95405.0,38.41878513,-122.6637621
241255,SANTA ROSA,APACHE ST & CREE CT & PAPAGO CT,95403.0,38.4612714,-122.74486359999999
241256,SANTA ROSA,BORDEN VILLA DR & W COLLEGE AVE,95401.0,38.44521435,-122.74412579999999
241257,SANTA ROSA,COLLEGE PARK CIR & DICKENS DR & W COLLEGE AVE,95401.0,38.445319500000004,-122.76781979999998
241258,SANTA ROSA,STONY POINT PLZ & STONY POINT RD,95407.0,38.42866101,-122.74153390000002
241259,SANTA ROSA,CONNIE ST & COURT ST,95407.0,38.40587755,-122.7115898
241260,SANTA ROSA,BIRCHBARK DR & OAK LEAF DR,95409.0,38.43575943,-122.5820307
241261,SANTA ROSA,BEAR CUB WAY & MENDOCINO AVE & PACIFIC AVE,95401.0,38.45336896,-122.717404
241262,SANTA ROSA,MENDOCINO AVE & ROSS ST,95401.0,38.44214069,-122.7152604
241263,PETALUMA,PETALUMA BLVD N & SHASTA AVE & SYCAMORE LN,94952.0,38.24658343,-122.6452078
241264,SANTA ROSA,LITTLE JOHN LN & SHORTT RD,95405.0,38.44827809,-122.69242179999999
241265,SANTA ROSA,AMETHYST WAY & TOKAY ST,95404.0,38.42009371,-122.70016310000001
241266,SANTA ROSA,SEBASTOPOL RD & STONY POINT RD,95407.0,38.42685471,-122.7413163
241267,SANTA ROSA,AMETHYST WAY & TOKAY ST,95404.0,38.42009371,-122.70016310000001
241268,SANTA ROSA,HILLMONT ST & PIEDMONT DR,95409.0,38.47761084,-122.65335120000002
241269,SANTA ROSA,AMETHYST WAY & TOKAY ST,95404.0,38.42009371,-122.70016310000001
241270,SANTA ROSA,KAREN WAY & VALLEJO ST,95404.0,38.4384119,-122.6968065
241271,SANTA ROSA,BROOKWOOD AVE & SONOMA AVE,95404.0,38.44036347,-122.70283090000001
241272,SANTA ROSA,DOWD DR & KENWOOD CT,95407.0,38.41086363,-122.71949359999999
241273,SANTA ROSA,MENDOCINO AVE & RIDGWAY AVE,95401.0,38.45018082,-122.717546
241274,SANTA ROSA,OCCIDENTAL RD & STONY POINT RD & WB STONY POINT RD OFFRAMP & WB STONY POINT RD ONRAMP,95401.0,38.43182581,-122.7419237
241275,SANTA ROSA,APPLE CREEK LN & N DUTTON AVE,95401.0,38.43541921,-122.7277581
241276,SANTA ROSA,DE TURK AVE & FRAZIER AVE,95404.0,38.4280194,-122.70612879999999
241277,SANTA ROSA,CORBY AVE & MYRTLEWOOD DR,95407.0,38.42307419,-122.7173908
241278,SANTA ROSA,LINK LN & W COLLEGE AVE,95401.0,38.44563699,-122.7342003
241279,SANTA ROSA,FARMERS LN & SUNRIDGE DR,95405.0,38.45127443,-122.68738940000001
241280,SANTA ROSA,SEBASTOPOL RD & WEST AVE,95407.0,38.42978491,-122.72890819999999
241281,SANTA ROSA,SEBASTOPOL RD & STONY POINT RD,95407.0,38.42685471,-122.7413163
241282,SANTA ROSA,OCEANIC WAY & SANTA ROSA AVE,95407.0,38.39052242,-122.71355630000001
241283,SANTA ROSA,HEWETT ST & UMLAND DR,95401.0,38.43758314,-122.73158259999998
241284,SANTA ROSA,SENNA DR & W 3RD ST,95401.0,38.4379375,-122.7615328
241285,SANTA ROSA,HWY 12 & MIDDLE RINCON RD,95409.0,38.46383244,-122.6649856
241286,SANTA ROSA,BROOKWOOD AVE & STEVENSON ST,95404.0,38.43609171,-122.70061640000002
241287,SANTA ROSA,COFFEY LN & W STEELE LN,95403.0,38.45998229,-122.7403416
241288,SANTA ROSA,SIMPSON PL & SIMPSON ST & W 9TH ST,95401.0,38.44155811,-122.73775259999998
241289,SANTA ROSA,RIVERA CT & RIVERA DR,95409.0,38.46778144,-122.67883570000001
241290,SANTA ROSA,ASTON AVE & ASTON WAY & PETALUMA HILL RD,95404.0,38.42386438,-122.7081955
241291,SANTA ROSA,SUMMERFIELD RD & TEE VIEW CT,95405.0,38.42628117,-122.65781170000001
241292,SANTA ROSA,PROSPECT AVE & SHERBROOK DR,95409.0,38.46331595,-122.6749892
241293,SANTA ROSA,7TH ST & RILEY ST,95404.0,38.44281473,-122.7147959
241294,SANTA ROSA,DUTTON AVE & N DUTTON AVE & W 3RD ST,95401.0,38.43412344,-122.72660729999998
241295,SANTA ROSA,BRYDEN LN & SAINT HELENA AVE,95404.0,38.45268355,-122.7010645
241296,SANTA ROSA,1ST ST & A ST,95401.0,38.43701961,-122.7158571
241297,SANTA ROSA,SLEEPY HOLLOW CT & SLEEPY HOLLOW DR,95404.0,38.47606792,-122.70023859999999
241298,SANTA ROSA,6TH ST & MORGAN ST & NB SR DOWNTOWN ONRAMP,95401.0,38.43992913,-122.7193773
241299,SANTA ROSA,MCMINN AVE & ROSELAND AVE & SEBASTOPOL RD,95407.0,38.42894733,-122.73236999999999
241300,SANTA ROSA,TARTON DR & TRAFALGAR PL,95405.0,38.43842565,-122.65365630000001
241301,SANTA ROSA,COLLEGE AVE & MENDOCINO AVE,95401.0,38.44564739,-122.7177125
241302,SANTA ROSA,CLOVER DR & CLOVER LN,95401.0,38.44827725,-122.7397233
241303,SANTA ROSA,CORPORATE CENTER PKWY & CORSAIR WAY & GIFFEN AVE,95407.0,38.41711771,-122.7539799
241304,SANTA ROSA,PARK ST & SAINT HELENA AVE,95404.0,38.45202797,-122.70116920000001
241305,SANTA ROSA,RANGE AVE & W STEELE LN,95403.0,38.45997358,-122.73261799999999
241306,SANTA ROSA,4TH ST & PROCTOR DR,95404.0,38.44845257,-122.69942859999999
241307,SANTA ROSA,LINCOLN ST & RIPLEY ST,95401.0,38.44495637,-122.724597
241308,SANTA ROSA,RICHMOND DR & SALEM AVE,95401.0,38.45956577,-122.7190646
241309,SANTA ROSA,MELITA RD & QUEEN ANNE DR,95409.0,38.46063198,-122.6444332
241310,SANTA ROSA,SLATER ST & SPENCER AVE,95404.0,38.45065962,-122.7158544
241311,SANTA ROSA,CLEAR RDG & MOSS HOLLOW,95404.0,38.48030384,-122.6994892
241312,SANTA ROSA,KAREN WAY & VALLEJO ST,95404.0,38.4384119,-122.6968065
241313,SANTA ROSA,E HAVEN DR & LA PALOMA AVE,95404.0,38.45207081,-122.6934827
241314,SANTA ROSA,FINLEY AVE & LEDDY AVE,95407.0,38.41998491,-122.7661094
241315,SANTA ROSA,D ST & SONOMA AVE,95404.0,38.43799433,-122.70998449999999
241316,SANTA ROSA,ELLIOTT AVE & MENDOCINO AVE,95401.0,38.45761166,-122.71725009999999
241317,SANTA ROSA,LAUREL ST & OLIVE ST,95401.0,38.43313302,-122.7189267
241318,SANTA ROSA,KAWANA SPRINGS RD & MEADOW WAY,95404.0,38.41646107,-122.70881059999999
241319,SANTA ROSA,HOPPER AVE & SB HOPPER AV OFFRAMP,95403.0,38.47971079,-122.7352915
241320,SANTA ROSA,BOYCE ST & COULTER ST,95401.0,38.44013969,-122.72706670000001
241321,SANTA ROSA,BEDFORD ST & LANSBURY ST,95404.0,38.41906182,-122.70772959999998
241322,SANTA ROSA,BILLIE JEAN ST & HOGAN AVE,95407.0,38.42637818,-122.7615581
241323,SANTA ROSA,BURT ST & SANTA ROSA AVE,95407.0,38.40971025,-122.7134884
241324,SANTA ROSA,APPLE CREEK LN & N DUTTON AVE,95401.0,38.43541921,-122.7277581
241325,SANTA ROSA,MCMASTER LN & MERA CT & WEST AVE,95407.0,38.42518144,-122.7283925
241326,SANTA ROSA,3RD ST & D ST,95404.0,38.44039704,-122.7117999
241327,SANTA ROSA,GARDNER AVE & KEEGAN DR & MARBLE ST,95407.0,38.42315637,-122.74391899999999
241328,SANTA ROSA,JANERO DR & STONY POINT RD,95407.0,38.42359468,-122.74087759999999
241329,SANTA ROSA,AHL PARK CT & SUMMERFIELD RD,95405.0,38.45154944,-122.66967520000001
241330,SANTA ROSA,3RD ST & PIERCE ST,95404.0,38.44403502,-122.70426709999998
241331,SANTA ROSA,MERCIE ST & OPAL,95403.0,38.47272814,-122.7332097
241332,SANTA ROSA,N DUTTON AVE & W COLLEGE AVE,95401.0,38.44581039,-122.7304284
241333,SANTA ROSA,MEADOWBROOK CT & W STEELE LN,95403.0,38.45998363,-122.7346763
241334,SANTA ROSA,3RD ST & D ST,95404.0,38.44039704,-122.7117999
241335,SANTA ROSA,BROOKWOOD AVE & SONOMA AVE,95404.0,38.44036347,-122.70283090000001
241336,SANTA ROSA,FAIR OAKS AVE & LELAND ST,95404.0,38.44468884,-122.70238229999998
241337,SANTA ROSA,CHANATE RD & JEREMY CT,95404.0,38.47235779,-122.69418229999998
241338,SANTA ROSA,FINLEY AVE & LEDDY AVE,95407.0,38.41998491,-122.7661094
241339,SANTA ROSA,BROOKWOOD AVE & SONOMA AVE,95404.0,38.44036347,-122.70283090000001
241340,SANTA ROSA,DORADO CT & W STEELE LN,95403.0,38.45998198,-122.7373249
241341,SANTA ROSA,SANTA ROSA AVE & SHADY LN,95407.0,38.40038756,-122.7134987
241342,SANTA ROSA,FLOWER AVE & NEWHALL ST & PETALUMA HILL RD,95404.0,38.42473645,-122.7087034
241343,SANTA ROSA,CORBY AVE & HEARN AVE,95407.0,38.41429399,-122.71748640000001
241344,SANTA ROSA,SIOUX ST & YUMA ST,95403.0,38.46131071,-122.74712849999999
241345,SANTA ROSA,FULTON RD & HWY 12 E & HWY 12 W & N WRIGHT RD,95401.0,38.42760143,-122.7691831
241346,SANTA ROSA,NORTHVIEW ST & SAN MIGUEL AVE,95403.0,38.47303669,-122.76481229999999
241347,SANTA ROSA,HERBERT ST & JENNINGS AVE,95401.0,38.45260372,-122.7336335
241348,SANTA ROSA,SPARROW CREEK ST & W COLLEGE AVE,95401.0,38.44521652,-122.74903090000001
241349,SANTA ROSA,KAWANA SPRINGS RD & SQUIRE LN,95404.0,38.41646098,-122.7105304
241350,SANTA ROSA,HEARN AVE & SANTA ROSA AVE,95407.0,38.41518155,-122.7135236
241351,SANTA ROSA,BROOKWOOD AVE & SONOMA AVE,95404.0,38.44036347,-122.70283090000001
241352,SANTA ROSA,MEDA AVE & SONATA AVE,95404.0,38.42116783,-122.69760409999999
241353,SANTA ROSA,MENDOCINO AVE & SPENCER AVE,95401.0,38.4507052,-122.7175146
241354,SANTA ROSA,BROOKWOOD AVE & SONOMA AVE,95404.0,38.44036347,-122.70283090000001
241355,SANTA ROSA,BETHARDS DR & CACTUS AVE,95405.0,38.42502148,-122.6692619
241356,SANTA ROSA,BROOKWOOD AVE & SONOMA AVE,95404.0,38.44036347,-122.70283090000001
241357,SANTA ROSA,BEAVER LN & KING ST,95404.0,38.44722356,-122.71082679999999
241358,SANTA ROSA,GUERNEVILLE RD & MARLOW RD,95403.0,38.45258756,-122.7513351
241359,SANTA ROSA,N DUTTON AVE & TESCONI CIR,95401.0,38.44943332,-122.73322350000001
241360,SANTA ROSA,3RD ST & A ST,95401.0,38.43817831,-122.7167402
241361,SANTA ROSA,RANGE AVE & W STEELE LN,95403.0,38.45997358,-122.73261799999999
241362,SANTA ROSA,BARHAM AVE & CORBY AVE,95407.0,38.42677371,-122.7178509
241363,SANTA ROSA,STONY POINT PLZ & STONY POINT RD,95407.0,38.42866101,-122.74153390000002
241364,SANTA ROSA,BICENTENNIAL WAY & THE OVERLOOK,95403.0,38.47173676,-122.72091370000001
241365,SANTA ROSA,CRYSTAL HILL DR & TURQUOISE WAY,95404.0,38.41911013,-122.7008114
241366,SANTA ROSA,STONY POINT RD & W 3RD ST,95401.0,38.43379484,-122.74240049999999
241367,SANTA ROSA,BLUEBELL DR & COFFEY LN,95403.0,38.465888,-122.741677
241368,SANTA ROSA,BROOKWOOD AVE & SONOMA AVE,95404.0,38.44036347,-122.70283090000001
241369,SANTA ROSA,SEBASTOPOL RD & WEST AVE,95407.0,38.42978491,-122.72890819999999
241370,SANTA ROSA,RICHMOND DR & SALEM AVE,95401.0,38.45956577,-122.7190646
241371,SANTA ROSA,BROOKWOOD AVE & SONOMA AVE,95404.0,38.44036347,-122.70283090000001
241372,SANTA ROSA,CACTUS AVE & YUCCA ST,95405.0,38.42546158,-122.6692824
241373,SANTA ROSA,CULEBRA AVE & LAS PRAVADAS CT & PRIMAVERA DR,95409.0,38.46585096,-122.67524660000001
241374,SANTA ROSA,FARMERS LN & VALLEJO ST,95405.0,38.43776289,-122.6873821
241375,SANTA ROSA,BEAVER ST & CHERRY ST,95404.0,38.44453735,-122.7123395
241376,SANTA ROSA,BOAS DR & HWY 12 & S BOAS DR,95409.0,38.46505683,-122.65784140000001
241377,SANTA ROSA,SKYVIEW DR & STARVIEW DR,95403.0,38.48017046,-122.7422017
241378,SANTA ROSA,INDUSTRIAL DR & PINER RD,95403.0,38.47148370000001,-122.73962809999999
241379,SANTA ROSA,FRANKLIN AVE & GAY ST,95404.0,38.46101047,-122.71060890000001
241380,SANTA ROSA,BROOKWOOD AVE & SONOMA AVE,95404.0,38.44036347,-122.70283090000001
241381,SANTA ROSA,JUILLIARD PARK DR & SANTA ROSA AVE,95404.0,38.434241,-122.71183899999998
241382,SANTA ROSA,FERNGLEN DR & PARKTRAIL DR,95405.0,38.43980351,-122.6561023
241383,SANTA ROSA,BROOKWOOD AVE & SONOMA AVE,95404.0,38.44036347,-122.70283090000001
241384,SANTA ROSA,ROBERTS AVE & SEBASTOPOL RD,95407.0,38.43118849,-122.72284590000001
241385,SANTA ROSA,CLOVER DR & W COLLEGE AVE,95401.0,38.44540732,-122.7394594
241386,SANTA ROSA,PINEWOOD DR & ROSEWOOD DR,95407.0,38.42003642,-122.7185621
241387,SANTA ROSA,HEIDI PL & W STEELE LN,95403.0,38.45998099,-122.73801110000001
241388,SANTA ROSA,COFFEY LN & SAN MIGUEL RD,95403.0,38.47452626,-122.747033
241389,SANTA ROSA,CEDAR ROCK LN & SUMMERCREEK DR,95404.0,38.41133518,-122.70992779999999
241390,SANTA ROSA,S A ST & SONOMA AVE,95401.0,38.43587467,-122.71551409999998
241391,SANTA ROSA,6TH ST & WILSON ST,95401.0,38.43876378,-122.7216926
241392,SANTA ROSA,LAUREL GROVE CIR & SEBASTOPOL RD,95407.0,38.42644233,-122.7466994
241393,SANTA ROSA,BAKER AVE & NB BAKER AV OFFRAMP & NB BAKER AV ONRAMP,95407.0,38.42135934,-122.7147642
241394,SANTA ROSA,MENDOCINO AVE & SCHURMAN DR,95403.0,38.46311909,-122.7182737
241395,SANTA ROSA,CONTRA COSTA DR & SISKIYOU AVE,95405.0,38.43529674,-122.6655357
241396,SANTA ROSA,EDWARDS AVE & RACCOON LN,95401.0,38.455409499999995,-122.72817260000001
241397,SANTA ROSA,JUSTIN DR & PANTOJA LN,95407.0,38.42611208,-122.7576481
241398,SANTA ROSA,BROOKWOOD AVE & SONOMA AVE,95404.0,38.44036347,-122.70283090000001
241399,SANTA ROSA,KIERAN CT & NEWANGA AVE,95405.0,38.44385098,-122.6615231
241400,SANTA ROSA,AILEEN AVE & SANTA ROSA AVE,95407.0,38.40844715,-122.7134993
241401,SANTA ROSA,GARDNER AVE & KENMORE LN,95407.0,38.42325801,-122.7425506
241402,SANTA ROSA,HICKOCK CT & PETERSON LN,95403.0,38.46309979,-122.7627345
241403,SANTA ROSA,BEDFORD ST & COMPTON AVE,95404.0,38.41696837,-122.7058154
241404,SANTA ROSA,BADER RD & VIOLETTI RD,95405.0,38.45401571,-122.6479913
241405,SANTA ROSA,FARMERS LN & HOEN AVE FRONTAGE RD & HWY 12 E,95405.0,38.43516241,-122.68761950000001
241406,SANTA ROSA,HEIDI PL & W STEELE LN,95403.0,38.45998099,-122.73801110000001
241407,SANTA ROSA,STONY POINT PLZ & STONY POINT RD,95407.0,38.42866101,-122.74153390000002
241408,SANTA ROSA,GUERNEVILLE RD & MARLOW RD,95403.0,38.45258756,-122.7513351
241409,SANTA ROSA,BICENTENNIAL WAY & LAKE PARK CT & LAKE PARK DR,95403.0,38.47364139,-122.7208081
241410,SANTA ROSA,SPARROW CREEK ST & W COLLEGE AVE,95401.0,38.44521652,-122.74903090000001
241411,SANTA ROSA,BROOKWOOD AVE & SONOMA AVE,95404.0,38.44036347,-122.70283090000001
241412,SANTA ROSA,KENMORE LN & SEBASTOPOL RD,95407.0,38.42674234,-122.7430645
241413,SANTA ROSA,EL CERRITO CT & EL CERRITO DR & N DUTTON AVE,95401.0,38.45454019,-122.73699180000001
241414,SANTA ROSA,KENMORE LN & SEBASTOPOL RD,95407.0,38.42674234,-122.7430645
241415,SANTA ROSA,JACK LONDON DR & SNARK AVE,95409.0,38.46999814,-122.6624598
241416,SANTA ROSA,BELHAVEN CIR & BELHAVEN CT,95409.0,38.43874976,-122.595598
241417,SANTA ROSA,PACIFIC AVE & SLATER ST,95404.0,38.45332356,-122.71574790000001
241418,SANTA ROSA,FOUNTAINGROVE PKWY & VARENNA,95403.0,38.48374729,-122.71226850000001
241419,SANTA ROSA,MCBRIDE LN & W STEELE LN,95403.0,38.45998549,-122.7302449
241420,SANTA ROSA,MORTON WAY & SOLANO DR,95404.0,38.43693601,-122.6943395
241421,SANTA ROSA,BELLEVUE AVE & TERRIMAY LN,95407.0,38.40172352,-122.71088229999998
241422,SANTA ROSA,BROOKWOOD AVE & SONOMA AVE,95404.0,38.44036347,-122.70283090000001
241423,SANTA ROSA,6TH ST & DAVIS ST,95401.0,38.43932824,-122.72045349999999
241424,SANTA ROSA,LORETTA WAY & NONIE ST,95403.0,38.47335547,-122.7328436
241425,SANTA ROSA,AIRWAY DR & INDUSTRIAL DR,95403.0,38.47686128,-122.7381217
241426,SANTA ROSA,BELLEVUE AVE & E BELLEVUE AVE & EDUCATION DR,95407.0,38.4017295,-122.7100702
241427,SANTA ROSA,W 3RD ST & WESTBROOK DR,95401.0,38.433634600000005,-122.73982290000001
241428,SANTA ROSA,BROOKWOOD AVE & SONOMA AVE,95404.0,38.44036347,-122.70283090000001
241429,SANTA ROSA,HENDLEY ST & OAK ST,95404.0,38.4329544,-122.70603090000002
241430,SANTA ROSA,NB YOLANDA AV OFFRAMP & NB YOLANDA AV ONRAMP & SANTA ROSA AVE & YOLANDA AVE,95407.0,38.413219700000006,-122.7135365
241431,SANTA ROSA,3RD ST & OLD COURTHOUSE SQ,95404.0,38.43991081,-122.7128433
241432,SANTA ROSA,4TH ST & D ST,95404.0,38.44121202,-122.7123828
241433,SANTA ROSA,E JASMINE CIR & LAUREL GROVE CIR,95407.0,38.427652,-122.745051
241434,SANTA ROSA,BROOKWOOD AVE & SONOMA AVE,95404.0,38.44036347,-122.70283090000001
241435,SANTA ROSA,TOWNVIEW AVE & TOWNVIEW LN,95405.0,38.43525419,-122.6859145
241436,SANTA ROSA,ROYAL OAK PL & W STEELE LN,95403.0,38.45977036,-122.7493436
241437,SANTA ROSA,BENTON ST & HUMBOLDT ST,95404.0,38.44778958,-122.7146692
241438,SANTA ROSA,E JASMINE CIR & LAUREL GROVE CIR,95407.0,38.427652,-122.745051
241439,SANTA ROSA,DONAHUE AVE & LONGHORN CIR,95401.0,38.431557,-122.75403899999999
241440,SANTA ROSA,E JASMINE CIR & LAUREL GROVE CIR,95407.0,38.427652,-122.745051
241441,SANTA ROSA,OCCIDENTAL RD & STONY POINT RD & WB STONY POINT RD OFFRAMP & WB STONY POINT RD ONRAMP,95401.0,38.43182581,-122.7419237
241442,SANTA ROSA,BROOKWOOD AVE & SONOMA AVE,95404.0,38.44036347,-122.70283090000001
241443,SANTA ROSA,MILLBROOK DR & PARK GARDENS DR,95404.0,38.4886702,-122.69067759999999
241444,SANTA ROSA,ETHAN DR & KIPLAND DR,95401.0,38.44774196,-122.7607895
241445,SANTA ROSA,RANGE AVE & RUSSELL AVE,95403.0,38.46912427,-122.7326346
241446,SANTA ROSA,13TH ST & SPRING ST,95404.0,38.44721235,-122.70273689999999
241447,SANTA ROSA,BIRCH HAVEN WAY & DEEP ROSE PL,95407.0,38.42908479,-122.72078119999999
241448,SANTA ROSA,STONY POINT PLZ & STONY POINT RD,95407.0,38.42866101,-122.74153390000002
241449,SANTA ROSA,BUTTE DR & HARDIES LN,95403.0,38.47062486,-122.73493090000001
241450,SANTA ROSA,KAWANA SPRINGS RD & SQUIRE LN,95404.0,38.41646098,-122.7105304
241451,SANTA ROSA,CLEVELAND AVE & EDWARDS AVE,95401.0,38.45576138,-122.7264186
241452,SANTA ROSA,DUTTON AVE & WALKHAM PL,95407.0,38.4280234,-122.7250038
241453,SANTA ROSA,4TH ST & FARMERS LN & HWY 12,95405.0,38.44972,-122.68848009999999
241454,SANTA ROSA,NB YOLANDA AV OFFRAMP & NB YOLANDA AV ONRAMP & SANTA ROSA AVE & YOLANDA AVE,95407.0,38.413219700000006,-122.7135365
241455,SANTA ROSA,CHANATE RD & COBBLESTONE DR,95404.0,38.46877293,-122.7054435
241456,SANTA ROSA,FARMERS LN & MONTGOMERY DR,95405.0,38.44654316,-122.6880353
241457,SANTA ROSA,BARHAM AVE & S A ST,95404.0,38.42715301,-122.7138562
241458,SANTA ROSA,STONY POINT RD & W 3RD ST,95401.0,38.43379484,-122.74240049999999
241459,SANTA ROSA,BROOKWOOD AVE & SONOMA AVE,95404.0,38.44036347,-122.70283090000001
241460,SANTA ROSA,DENNIS LN & MOCHA LN,95403.0,38.48283119,-122.7494361
241461,SANTA ROSA,SAN SONITA DR & SANSONE DR,95403.0,38.47159071,-122.7499032
241462,SANTA ROSA,DENNIS LN & MOCHA LN,95403.0,38.48283119,-122.7494361
241463,SANTA ROSA,SKYVIEW CT & SKYVIEW DR,95403.0,38.48192334,-122.74273500000001
241464,SANTA ROSA,STANISLAUS WAY & TRUCKEE DR,95401.0,38.44471579,-122.7598057
241465,SANTA ROSA,BRANDEE LN & MOCHA LN,95403.0,38.48117583,-122.7487067
241466,SANTA ROSA,CASHEW RD & PINYON ST,95403.0,38.4762025,-122.7457081
241467,SANTA ROSA,SPARROW CREEK ST & W COLLEGE AVE,95401.0,38.44521652,-122.74903090000001
241468,SANTA ROSA,SAN SONITA DR & SANSONE DR,95403.0,38.47159071,-122.7499032
241469,SANTA ROSA,BRANDEE LN & MOCHA LN,95403.0,38.48117583,-122.7487067
241470,SANTA ROSA,5TH ST & MORGAN ST,95401.0,38.439145399999994,-122.7188437
241471,SANTA ROSA,BANYAN ST & DOGWOOD DR,95403.0,38.47808314,-122.7435121
241472,SANTA ROSA,MILLER DR & SKYVIEW DR & WILLOWVIEW CT,95403.0,38.48220182,-122.7429081
241473,SANTA ROSA,CASHEW RD & PINYON ST,95403.0,38.4762025,-122.7457081
241474,SANTA ROSA,KEOKE CT & MOCHA LN,95403.0,38.48042921,-122.7486844
241475,SANTA ROSA,CRESTVIEW DR & STARVIEW CT & STARVIEW DR,95403.0,38.48017008,-122.7454794
241476,SANTA ROSA,DOGWOOD DR & SWEETGUM ST,95403.0,38.477551299999995,-122.7439723
241477,SANTA ROSA,HOPPER AVE & MOCHA LN,95403.0,38.47968961,-122.74867900000001
241478,SANTA ROSA,MILLER DR & SKYVIEW DR & WILLOWVIEW CT,95403.0,38.48220182,-122.7429081
241479,SANTA ROSA,DOGWOOD DR & PINYON ST,95403.0,38.47688832,-122.7457215
241480,SANTA ROSA,HOPPER AVE & PERK PL,95403.0,38.47956982,-122.75046
241481,SANTA ROSA,SAN SONITA DR & SANSONE DR,95403.0,38.47159071,-122.7499032
241482,SANTA ROSA,COFFEY LN & PINE MEADOW DR,95403.0,38.47585671,-122.7470904
241483,SANTA ROSA,HOPPER AVE & KERRY LN,95403.0,38.47853374,-122.75483179999999
241484,SANTA ROSA,CRESTVIEW DR & STARVIEW CT & STARVIEW DR,95403.0,38.48017008,-122.7454794
241485,SANTA ROSA,DOGWOOD DR & HEMLOCK ST,95403.0,38.476867999999996,-122.74651499999999
241486,SANTA ROSA,HOLLY PARK WAY & PINYON ST,95403.0,38.47543056,-122.7457014
241487,SANTA ROSA,BRANDEE LN & MOCHA LN,95403.0,38.48117583,-122.7487067
241488,SANTA ROSA,MILLER DR & SKYVIEW DR & WILLOWVIEW CT,95403.0,38.48220182,-122.7429081
241489,SANTA ROSA,HOLLY PARK WAY & PINYON ST,95403.0,38.47543056,-122.7457014
241490,SANTA ROSA,CRESTVIEW DR & STARVIEW CT & STARVIEW DR,95403.0,38.48017008,-122.7454794
241491,SANTA ROSA,CRIMSON LN & KERRY LN,95403.0,38.47979384,-122.7552378
241492,SANTA ROSA,HOPPER AVE & SUMATRA DR,95403.0,38.47932027,-122.75121270000001
241493,SANTA ROSA,SANSONE CT & TOWHEE DR,95403.0,38.47207797,-122.74838999999999
241494,SANTA ROSA,STONY POINT RD & W 3RD ST,95401.0,38.43379484,-122.74240049999999
241495,SANTA ROSA,KEOKE CT & MOCHA LN,95403.0,38.48042921,-122.7486844
241496,SANTA ROSA,HEMLOCK CT & HEMLOCK ST,95403.0,38.47822765,-122.7465402
241497,SANTA ROSA,DUTTON AVE & N DUTTON AVE & W 3RD ST,95401.0,38.43412344,-122.72660729999998
241498,SANTA ROSA,HOPPER AVE & SCARLET PL,95403.0,38.47914663,-122.75189590000001
241499,SANTA ROSA,HOPPER AVE & KERRY LN,95403.0,38.47853374,-122.75483179999999
241500,SANTA ROSA,COFFEY LN & HOPPER AVE,95403.0,38.47970598,-122.7471494
241501,SANTA ROSA,SANSONE CT & TOWHEE DR,95403.0,38.47207797,-122.74838999999999
241502,SANTA ROSA,CARINA DR & DAREK DR,95401.0,38.43271141,-122.7515848
241503,SANTA ROSA,FARMERS LN & MONTGOMERY DR,95405.0,38.44654316,-122.6880353
241504,SANTA ROSA,CRESTVIEW DR & MILLER DR,95403.0,38.48207634,-122.74577790000001
241505,SANTA ROSA,HILLARY CT & HOPPER AVE,95403.0,38.4796987,-122.7477757
241506,SANTA ROSA,ACACIA LN & HWY 12,95409.0,38.46230051,-122.66904170000001
241507,SANTA ROSA,HOLLY PARK WAY & PINYON ST,95403.0,38.47543056,-122.7457014
241508,SANTA ROSA,HOPPER AVE & SCARLET PL,95403.0,38.47914663,-122.75189590000001
241509,SANTA ROSA,BROOKWOOD AVE & SONOMA AVE,95404.0,38.44036347,-122.70283090000001
241510,SANTA ROSA,CRESTVIEW CT & CRESTVIEW DR,95403.0,38.48115821,-122.7456335
241511,SANTA ROSA,HOPPER AVE & SCARLET PL,95403.0,38.47914663,-122.75189590000001
241512,SANTA ROSA,SANSONE CT & TOWHEE DR,95403.0,38.47207797,-122.74838999999999
241513,SANTA ROSA,CRESTVIEW DR & MILLER DR,95403.0,38.48207634,-122.74577790000001
241514,SANTA ROSA,HILLARY CT & HOPPER AVE,95403.0,38.4796987,-122.7477757
241515,SANTA ROSA,BROOKWOOD AVE & SONOMA AVE,95404.0,38.44036347,-122.70283090000001
241516,SANTA ROSA,CASHEW RD & SWEETGUM ST,95403.0,38.47704387,-122.7433528
241517,SANTA ROSA,HOPPER AVE & RITA PL,95403.0,38.47897316,-122.7540625
241518,SANTA ROSA,BROOKWOOD AVE & SONOMA AVE,95404.0,38.44036347,-122.70283090000001
241519,SANTA ROSA,CRESTVIEW DR & STARVIEW CT & STARVIEW DR,95403.0,38.48017008,-122.7454794
241520,SANTA ROSA,CORONADO CIR & HERMOSA CIR,95409.0,38.47739421,-122.6558195
241521,SANTA ROSA,CASHEW RD & PINYON ST,95403.0,38.4762025,-122.7457081
241522,SANTA ROSA,CASHEW RD & SWEETGUM ST,95403.0,38.47704387,-122.7433528
241523,SANTA ROSA,CRESTVIEW DR & MILLER DR,95403.0,38.48207634,-122.74577790000001
241524,SANTA ROSA,HEMLOCK CT & HEMLOCK ST,95403.0,38.47822765,-122.7465402
241525,SANTA ROSA,SAN SONITA DR & SANTIAGO DR,95403.0,38.47253751,-122.7492811
241526,SANTA ROSA,HOPPER AVE & RANDON WAY,95403.0,38.47814409,-122.75556040000001
241527,SANTA ROSA,CRESTVIEW DR & STARVIEW CT & STARVIEW DR,95403.0,38.48017008,-122.7454794
241528,SANTA ROSA,LAPPER AVE & WALTZER RD,95403.0,38.46885776,-122.75629520000001
241529,SANTA ROSA,HOPPER AVE & RANDON WAY,95403.0,38.47814409,-122.75556040000001
241530,SANTA ROSA,CRESTVIEW DR & MILLER DR,95403.0,38.48207634,-122.74577790000001
241531,SANTA ROSA,DOGWOOD DR & SWEETGUM ST,95403.0,38.477551299999995,-122.7439723
241532,SANTA ROSA,BRANDEE LN & ESPRESSO CT,95403.0,38.4809713,-122.75069369999999
241533,SANTA ROSA,HEMLOCK CT & HEMLOCK ST,95403.0,38.47822765,-122.7465402
241534,SANTA ROSA,GRAY CT & SONOMA AVE,95404.0,38.43965306,-122.70543
241535,SANTA ROSA,BLAKE PL & KERRY LN,95403.0,38.47818487,-122.7535757
241536,SANTA ROSA,COFFEY LN & W STEELE LN,95403.0,38.45998229,-122.7403416
241537,SANTA ROSA,BETHARDS DR & SAINT PAUL DR,95405.0,38.42739575,-122.6650668
241538,SANTA ROSA,SAN SONITA DR & SANTIAGO DR,95403.0,38.47253751,-122.7492811
241539,SANTA ROSA,DOGWOOD DR & PINYON ST,95403.0,38.47688832,-122.7457215
241540,SANTA ROSA,CRESTVIEW DR & STARVIEW CT & STARVIEW DR,95403.0,38.48017008,-122.7454794
241541,SANTA ROSA,HARWOOD ST & KERNEY ST,95401.0,38.45208274,-122.739943
241542,SANTA ROSA,HOPPER AVE & KERRY LN,95403.0,38.47853374,-122.75483179999999
241543,SANTA ROSA,HEMLOCK CT & HEMLOCK ST,95403.0,38.47822765,-122.7465402
241544,SANTA ROSA,DOGWOOD DR & PINYON ST,95403.0,38.47688832,-122.7457215
241545,SANTA ROSA,BLAKE PL & KERRY LN,95403.0,38.47818487,-122.7535757
241546,SANTA ROSA,KEOKE CT & MOCHA LN,95403.0,38.48042921,-122.7486844
241547,SANTA ROSA,CRESTVIEW DR & STARVIEW CT & STARVIEW DR,95403.0,38.48017008,-122.7454794
241548,SANTA ROSA,5TH ST & DAVIS ST,95401.0,38.43862443,-122.71994099999999
241549,SANTA ROSA,BLAKE PL & KERRY LN,95403.0,38.47818487,-122.7535757
241550,SANTA ROSA,SAN SONITA DR & SANTIAGO DR,95403.0,38.47253751,-122.7492811
241551,SANTA ROSA,HOPPER AVE & RITA PL,95403.0,38.47897316,-122.7540625
241552,SANTA ROSA,BLAKE PL & KERRY LN,95403.0,38.47818487,-122.7535757
241553,SANTA ROSA,CRESTVIEW DR & MILLER DR,95403.0,38.48207634,-122.74577790000001
241554,SANTA ROSA,BROOKWOOD AVE & SONOMA AVE,95404.0,38.44036347,-122.70283090000001
241555,SANTA ROSA,RIDGECREST CT & STARVIEW DR,95403.0,38.4801679,-122.744425
241556,SANTA ROSA,KEOKE CT & MOCHA LN,95403.0,38.48042921,-122.7486844
241557,SANTA ROSA,CRESTVIEW DR & MILLER DR,95403.0,38.48207634,-122.74577790000001
241558,SANTA ROSA,HOPPER AVE & MOCHA LN,95403.0,38.47968961,-122.74867900000001
241559,SANTA ROSA,HOPPER AVE & MOCHA LN,95403.0,38.47968961,-122.74867900000001
241560,SANTA ROSA,HEMLOCK ST & TULIPTREE RD,95403.0,38.477546999999994,-122.746527
241561,SANTA ROSA,SAN SALVADOR DR & SANTIAGO DR,95403.0,38.47296182,-122.75114440000002
241562,SANTA ROSA,RIDGECREST CT & STARVIEW DR,95403.0,38.4801679,-122.744425
241563,SANTA ROSA,SB STEELE LN OFFRAMP & SB STEELE LN ONRAMP & STEELE LN & W STEELE LN,95403.0,38.45993819,-122.7267705
241564,SANTA ROSA,MILLER DR & SKYVIEW DR & WILLOWVIEW CT,95403.0,38.48220182,-122.7429081
241565,SANTA ROSA,ASTON AVE & ASTON WAY & PETALUMA HILL RD,95404.0,38.42386438,-122.7081955
241566,SANTA ROSA,BLAKE PL & KERRY LN,95403.0,38.47818487,-122.7535757
241567,SANTA ROSA,HEMLOCK CT & HEMLOCK ST,95403.0,38.47822765,-122.7465402
241568,SANTA ROSA,CROSS AVE & OCCIDENTAL CIR,95401.0,38.43014208,-122.7583207
241569,SANTA ROSA,RIDGECREST CT & STARVIEW DR,95403.0,38.4801679,-122.744425
241570,SANTA ROSA,RIDGECREST CT & STARVIEW DR,95403.0,38.4801679,-122.744425
241571,SANTA ROSA,KONA PL & MOCHA LN,95403.0,38.48181104,-122.7489797
241572,SANTA ROSA,RIDGECREST CT & STARVIEW DR,95403.0,38.4801679,-122.744425
241573,SANTA ROSA,BLAKE PL & KERRY LN,95403.0,38.47818487,-122.7535757
241574,SANTA ROSA,BRANDEE LN & ESPRESSO CT,95403.0,38.4809713,-122.75069369999999
241575,SANTA ROSA,HEMLOCK CT & HEMLOCK ST,95403.0,38.47822765,-122.7465402
241576,SANTA ROSA,HEMLOCK ST & TULIPTREE RD,95403.0,38.477546999999994,-122.746527
241577,SANTA ROSA,SPARROW CREEK ST & W COLLEGE AVE,95401.0,38.44521652,-122.74903090000001
241578,SANTA ROSA,SAN SALVADOR DR & SANTIAGO DR,95403.0,38.47296182,-122.75114440000002
241579,SANTA ROSA,RIDGECREST CT & STARVIEW DR,95403.0,38.4801679,-122.744425
241580,SANTA ROSA,BRANDEE LN & ESPRESSO CT,95403.0,38.4809713,-122.75069369999999
241581,SANTA ROSA,KERRY LN & SANTIAGO DR,95403.0,38.47821614,-122.75217190000001
241582,SANTA ROSA,HEMLOCK CT & HEMLOCK ST,95403.0,38.47822765,-122.7465402
241583,SANTA ROSA,HEMLOCK ST & TULIPTREE RD,95403.0,38.477546999999994,-122.746527
241584,SANTA ROSA,6TH ST & MORGAN ST & NB SR DOWNTOWN ONRAMP,95401.0,38.43992913,-122.7193773
241585,SANTA ROSA,KERRY LN & SANTIAGO DR,95403.0,38.47821614,-122.75217190000001
241586,SANTA ROSA,STARVIEW DR & VIEW CT,95403.0,38.48016586,-122.7433554
241587,SANTA ROSA,BRANDEE LN & HENNESSY PL,95403.0,38.48069172,-122.7517707
241588,SANTA ROSA,CRIMSON LN & VERMILLION WAY,95403.0,38.48142125,-122.75268319999999
241589,SANTA ROSA,KERRY LN & SANTIAGO DR,95403.0,38.47821614,-122.75217190000001
241590,SANTA ROSA,DOGWOOD DR & SWEETGUM ST,95403.0,38.477551299999995,-122.7439723
241591,SANTA ROSA,CRESTVIEW DR & HOPPER AVE,95403.0,38.47970992,-122.74547179999999
241592,SANTA ROSA,BRANDEE LN & CRIMSON LN,95403.0,38.48069374,-122.7526239
241593,SANTA ROSA,SKYVIEW CT & SKYVIEW DR,95403.0,38.48192334,-122.74273500000001
241594,SANTA ROSA,KERRY LN & SANTIAGO DR,95403.0,38.47821614,-122.75217190000001
241595,SANTA ROSA,HEMLOCK ST & TULIPTREE RD,95403.0,38.47840331,-122.7453196
241596,SANTA ROSA,ARROWOOD DR & BEACHWOOD DR,95407.0,38.42130588,-122.7206355
241597,SANTA ROSA,CRESTVIEW DR & HOPPER AVE,95403.0,38.47970992,-122.74547179999999
241598,SANTA ROSA,KEOKE CT & MOCHA LN,95403.0,38.48042921,-122.7486844
241599,SANTA ROSA,KERRY LN & SANTIAGO DR,95403.0,38.47821614,-122.75217190000001
241600,SANTA ROSA,OLD RANCH DR & VALLEY PL,95405.0,38.43229971,-122.6577382
241601,SANTA ROSA,MANHATTAN WAY & NEW YORK DR,95401.0,38.44776221,-122.7447372
241602,SANTA ROSA,CAMINO DEL PRADO & COFFEY MEADOW DR,95403.0,38.4752047,-122.7512038
241603,SANTA ROSA,BRANDEE LN & CRIMSON LN,95403.0,38.48069374,-122.7526239
241604,SANTA ROSA,4TH ST & B ST,95401.0,38.43971531,-122.71565840000001
241605,SANTA ROSA,KERRY LN & SANTIAGO DR,95403.0,38.47821614,-122.75217190000001
241606,SANTA ROSA,JENNA PL & MOCHA LN,95403.0,38.47756248,-122.74886550000001
241607,SANTA ROSA,MENDOCINO AVE & SCHURMAN DR,95403.0,38.46311909,-122.7182737
241608,SANTA ROSA,KERRY LN & SUMATRA DR,95403.0,38.47823005,-122.7508268
241609,SANTA ROSA,BRANDEE LN & CRIMSON LN,95403.0,38.48069374,-122.7526239
241610,SANTA ROSA,5TH ST & B ST,95401.0,38.44038228,-122.7161508
241611,SANTA ROSA,KERRY LN & SUMATRA DR,95403.0,38.47823005,-122.7508268
241612,SANTA ROSA,COFFEY LN & HOPPER AVE,95403.0,38.47970598,-122.7471494
241613,SANTA ROSA,BRANDEE LN & ESPRESSO CT,95403.0,38.4809713,-122.75069369999999
241614,SANTA ROSA,DOGWOOD DR & PINE MEADOW DR,95403.0,38.47584638,-122.75024099999999
241615,SANTA ROSA,KERRY LN & SUMATRA DR,95403.0,38.47823005,-122.7508268
241616,SANTA ROSA,KERRY LN & SUMATRA DR,95403.0,38.47823005,-122.7508268
241617,SANTA ROSA,COFFEY LN & W STEELE LN,95403.0,38.45998229,-122.7403416
241618,SANTA ROSA,HILLARY CT & HOPPER AVE,95403.0,38.4796987,-122.7477757
241619,SANTA ROSA,HOPPER AVE & PERK PL,95403.0,38.47956982,-122.75046
241620,SANTA ROSA,DUTTON AVE & FREITAS CT,95407.0,38.42764531,-122.72495900000001
241621,SANTA ROSA,ESTRELLA DR & SOLA CT,95403.0,38.46410461,-122.73627920000001
241622,SANTA ROSA,PINE MEADOW DR & PINE MEADOW PL,95403.0,38.47585187,-122.7484304
241623,SANTA ROSA,EDWARDS AVE & RANGE AVE,95401.0,38.45437446,-122.7321686
241624,SANTA ROSA,ADMINISTRATION DR & FISCAL DR,95403.0,38.464714799999996,-122.72035190000001
241625,SANTA ROSA,BECKY CT & COFFEY LN,95403.0,38.46233298,-122.7417378
241626,SANTA ROSA,SANSONE CT & TOWHEE DR,95403.0,38.47207797,-122.74838999999999
241627,SANTA ROSA,HOPPER AVE & PERK PL,95403.0,38.47956982,-122.75046
241628,SANTA ROSA,SANSONE CT & TOWHEE DR,95403.0,38.47207797,-122.74838999999999
241629,SANTA ROSA,CLEVELAND AVE & GUERNEVILLE RD & W STEELE LN,95401.0,38.45991177,-122.7284087
241630,SANTA ROSA,CANARY PL & TOWHEE DR,95403.0,38.47208053,-122.7472774
241631,SANTA ROSA,AMANDA PL & MOCHA LN,95403.0,38.47861642,-122.74881529999999
241632,SANTA ROSA,BONITA VISTA DR & DEER PARK CT & DEER PARK DR,95404.0,38.47766669,-122.6991652
241633,SANTA ROSA,HOPPER AVE & KERRY LN,95403.0,38.47853374,-122.75483179999999
241634,SANTA ROSA,DOGWOOD DR & PINE MEADOW DR,95403.0,38.47584638,-122.75024099999999
241635,SANTA ROSA,BROOKWOOD AVE & SONOMA AVE,95404.0,38.44036347,-122.70283090000001
241636,SANTA ROSA,HOPPER AVE & JESSICA PL,95403.0,38.47912384,-122.7528867
241637,SANTA ROSA,SANTIAGO DR & SHELBOURNE WAY,95403.0,38.47678154,-122.7521547
241638,SANTA ROSA,SAN MARCOS DR & SAN SONITA DR,95403.0,38.47380333,-122.74933270000001
241639,SANTA ROSA,NINA CT & SUMATRA DR,95403.0,38.47873366,-122.75089170000001
241640,SANTA ROSA,SAN SALVADOR DR & SANTIAGO DR,95403.0,38.47296182,-122.75114440000002
241641,SANTA ROSA,HILLARY CT & HOPPER AVE,95403.0,38.4796987,-122.7477757
241642,SANTA ROSA,HOPPER AVE & JESSICA PL,95403.0,38.47912384,-122.7528867
241643,SANTA ROSA,GRAY CT & SONOMA AVE,95404.0,38.43965306,-122.70543
241644,SANTA ROSA,NINA CT & SUMATRA DR,95403.0,38.47873366,-122.75089170000001
241645,SANTA ROSA,KEOKE CT & MOCHA LN,95403.0,38.48042921,-122.7486844
241646,SANTA ROSA,KERRY LN & SUMATRA DR,95403.0,38.47823005,-122.7508268
241647,SANTA ROSA,SAN MARCOS DR & SAN SONITA DR,95403.0,38.47380333,-122.74933270000001
241648,SANTA ROSA,HOPPER AVE & SCARLET PL,95403.0,38.47914663,-122.75189590000001
241649,SANTA ROSA,FAIRGRAVE AVE & FRESNO AVE,95407.0,38.41105826,-122.75700790000002
241650,SANTA ROSA,NINA CT & SUMATRA DR,95403.0,38.47873366,-122.75089170000001
241651,SANTA ROSA,JENNA PL & MOCHA LN,95403.0,38.47756248,-122.74886550000001
241652,SANTA ROSA,BROOKWOOD AVE & SONOMA AVE,95404.0,38.44036347,-122.70283090000001
241653,SANTA ROSA,HOPPER AVE & SCARLET PL,95403.0,38.47914663,-122.75189590000001
241654,SANTA ROSA,SAN MARCOS DR & SAN SONITA DR,95403.0,38.47380333,-122.74933270000001
241655,SANTA ROSA,BRANDEE LN & MOCHA LN,95403.0,38.48117583,-122.7487067
241656,SANTA ROSA,MOJAVE AVE & MONUMENT DR,95407.0,38.403734899999996,-122.7262259
241657,SANTA ROSA,JENNA PL & MOCHA LN,95403.0,38.47756248,-122.74886550000001
241658,SANTA ROSA,JENNA PL & MOCHA LN,95403.0,38.47756248,-122.74886550000001
241659,SANTA ROSA,KEOKE CT & MOCHA LN,95403.0,38.48042921,-122.7486844
241660,SANTA ROSA,COFFEY LN & SAN MIGUEL RD,95403.0,38.47452626,-122.747033
241661,SANTA ROSA,KEOKE CT & MOCHA LN,95403.0,38.48042921,-122.7486844
241662,SANTA ROSA,BARNES RD & MONTICELLO CT,95403.0,38.47583561,-122.7532553
241663,SANTA ROSA,NINA CT & SUMATRA DR,95403.0,38.47873366,-122.75089170000001
241664,SANTA ROSA,HOPPER AVE & SCARLET PL,95403.0,38.47914663,-122.75189590000001
241665,SANTA ROSA,DOGWOOD DR & MOCHA LN,95403.0,38.47688057,-122.7486588
241666,SANTA ROSA,KONA PL & MOCHA LN,95403.0,38.48181104,-122.7489797
241667,SANTA ROSA,HOPPER AVE & PERK PL,95403.0,38.47956982,-122.75046
241668,SANTA ROSA,BARNES RD & PINE MEADOW DR & SANTIAGO DR,95403.0,38.47583736,-122.7521499
241669,SANTA ROSA,CLEVELAND AVE & TERRY LN,95403.0,38.46421777,-122.72841559999999
241670,SANTA ROSA,KONA PL & MOCHA LN,95403.0,38.48181104,-122.7489797
241671,SANTA ROSA,HOPPER AVE & PERK PL,95403.0,38.47956982,-122.75046
241672,SANTA ROSA,DOGWOOD DR & MOCHA LN,95403.0,38.47688057,-122.7486588
241673,SANTA ROSA,DUTTON AVE & FREITAS CT,95407.0,38.42764531,-122.72495900000001
241674,SANTA ROSA,CLOVER DR & W COLLEGE AVE,95401.0,38.44540732,-122.7394594
241675,SANTA ROSA,DOGWOOD DR & MOCHA LN,95403.0,38.47688057,-122.7486588
241676,SANTA ROSA,HOPPER AVE & PERK PL,95403.0,38.47956982,-122.75046
241677,SANTA ROSA,SAN MIGUEL RD & TRACKS,95403.0,38.47445213,-122.75326229999999
241678,SANTA ROSA,BRANDEE LN & HENNESSY PL,95403.0,38.48069172,-122.7517707
241679,SANTA ROSA,BARNES RD & MONTICELLO CT,95403.0,38.47583561,-122.7532553
241680,SANTA ROSA,HOPPER AVE & PERK PL,95403.0,38.47956982,-122.75046
241681,SANTA ROSA,JENNA PL & MOCHA LN,95403.0,38.47756248,-122.74886550000001
241682,SANTA ROSA,HOPPER AVE & PERK PL,95403.0,38.47956982,-122.75046
241683,SANTA ROSA,DOGWOOD DR & PINE MEADOW DR,95403.0,38.47584638,-122.75024099999999
241684,SANTA ROSA,HOPPER AVE & SUMATRA DR,95403.0,38.47932027,-122.75121270000001
241685,SANTA ROSA,DOGWOOD DR & PINE MEADOW DR,95403.0,38.47584638,-122.75024099999999
241686,SANTA ROSA,SAN SALVADOR DR & SANTIAGO DR,95403.0,38.47296182,-122.75114440000002
241687,SANTA ROSA,DUTTON AVE & N DUTTON AVE & W 3RD ST,95401.0,38.43412344,-122.72660729999998
241688,SANTA ROSA,BARNES RD & PINE MEADOW DR & SANTIAGO DR,95403.0,38.47583736,-122.7521499
241689,SANTA ROSA,HOPPER AVE & MOCHA LN,95403.0,38.47968961,-122.74867900000001
241690,SANTA ROSA,KEOKE CT & MOCHA LN,95403.0,38.48042921,-122.7486844
241691,SANTA ROSA,HOPPER AVE & MOCHA LN,95403.0,38.47968961,-122.74867900000001
241692,SANTA ROSA,SAN MARCOS DR & SANTIAGO DR,95403.0,38.47360145,-122.751698
241693,SANTA ROSA,SANTA ROSA AVE & SOUTHSIDE,95407.0,38.41151265,-122.713498
241694,SANTA ROSA,AMANDA PL & MOCHA LN,95403.0,38.47861642,-122.74881529999999
241695,SANTA ROSA,AMANDA PL & MOCHA LN,95403.0,38.47861642,-122.74881529999999
241696,SANTA ROSA,ALTRURIA DR & GARDENVIEW CIR,95403.0,38.48012349,-122.717688
241697,SANTA ROSA,SAN MARCOS DR & SANTIAGO DR,95403.0,38.47360145,-122.751698
241698,SANTA ROSA,SANTIAGO DR & SHELBOURNE WAY,95403.0,38.47678154,-122.7521547
241699,SANTA ROSA,VALLEJO ST & VIRGINIA CT,95404.0,38.43644984,-122.7049298
241700,SANTA ROSA,ASTAIRE CT & SANTIAGO DR & WARING CT,95403.0,38.47751552,-122.75216129999998
241701,SANTA ROSA,ASTAIRE CT & SANTIAGO DR & WARING CT,95403.0,38.47751552,-122.75216129999998
241702,SANTA ROSA,MENDOCINO OV & SB MENDOCINO AV ONRAMP,95403.0,38.47536781,-122.7323398
241703,SANTA ROSA,ASTAIRE CT & SANTIAGO DR & WARING CT,95403.0,38.47751552,-122.75216129999998
241704,SANTA ROSA,MILICENT WAY & SANTA ROSA AVE,95407.0,38.42030020000001,-122.71351090000002
241705,SANTA ROSA,KERRY LN & SUMATRA DR,95403.0,38.47823005,-122.7508268
241706,SANTA ROSA,ASTAIRE CT & SANTIAGO DR & WARING CT,95403.0,38.47751552,-122.75216129999998
241707,SANTA ROSA,KERRY LN & SANTIAGO DR,95403.0,38.47821614,-122.75217190000001
241708,SANTA ROSA,KERRY LN & SANTIAGO DR,95403.0,38.47821614,-122.75217190000001
241709,SANTA ROSA,JACKY DR & MAYETTE AVE,95405.0,38.44187929,-122.6740577
241710,SANTA ROSA,SAN SALVADOR DR & SANTIAGO DR,95403.0,38.47296182,-122.75114440000002
241711,SANTA ROSA,MODOC DR & SHASTA WAY,95403.0,38.46973047,-122.73660500000001
241712,SANTA ROSA,NINA CT & SUMATRA DR,95403.0,38.47873366,-122.75089170000001
241713,SANTA ROSA,4TH ST & E ST,95404.0,38.4419527,-122.7107402
241714,SANTA ROSA,KERRY LN & SANTIAGO DR,95403.0,38.47821614,-122.75217190000001
241715,SANTA ROSA,HOPPER AVE & MOCHA LN,95403.0,38.47968961,-122.74867900000001
241716,SANTA ROSA,COFFEY LN & HOPPER AVE,95403.0,38.47970598,-122.7471494
241717,SANTA ROSA,AMANDA PL & MOCHA LN,95403.0,38.47861642,-122.74881529999999
241718,SANTA ROSA,RUTH PL & W 9TH ST,95401.0,38.44136737,-122.7421851
241719,SANTA ROSA,SAN SALVADOR DR & SANTIAGO DR,95403.0,38.47296182,-122.75114440000002
241720,SANTA ROSA,FRANQUETTE AVE & MAYETTE AVE,95405.0,38.44064524,-122.6801597
241721,SANTA ROSA,MAGOWAN DR & MIDWAY DR,95405.0,38.4488463,-122.67471640000001
241722,SANTA ROSA,HOWARD ST & SLATER ST,95404.0,38.44879456,-122.71594180000001
241723,SANTA ROSA,CLEVELAND AVE & TERRY LN,95403.0,38.46421777,-122.72841559999999
241724,SANTA ROSA,5TH ST & MORGAN ST,95401.0,38.439145399999994,-122.7188437
241725,SANTA ROSA,SAN SONITA DR & SANTIAGO DR,95403.0,38.47253751,-122.7492811
241726,SANTA ROSA,FISCAL DR & VENTURA AVE,95403.0,38.4654511,-122.72434240000001
241727,SANTA ROSA,FULTON RD & GORDON CREEK DR,95401.0,38.4493225,-122.76964679999999
241728,SANTA ROSA,SAN MARCOS DR & SANTIAGO DR,95403.0,38.47360145,-122.751698
241729,SANTA ROSA,HOWARTH CT & SUMMERFIELD RD,95405.0,38.45259497,-122.670344
241730,SANTA ROSA,DOGWOOD DR & MOCHA LN,95403.0,38.47688057,-122.7486588
241731,SANTA ROSA,BETHEL AVE & LINK LN,95401.0,38.44339327,-122.7340091
241732,SANTA ROSA,KAWANA SPRINGS RD & SQUIRE LN,95404.0,38.41646098,-122.7105304
241733,SANTA ROSA,COLLEGE AVE & HUMBOLDT ST,95404.0,38.44557246,-122.714771
241734,SANTA ROSA,BEAR CUB WAY & MENDOCINO AVE & PACIFIC AVE,95401.0,38.45336896,-122.717404
241735,SANTA ROSA,MILICENT WAY & SANTA ROSA AVE,95407.0,38.42030020000001,-122.71351090000002
241736,SANTA ROSA,MCMINN AVE & ODELL LN,95407.0,38.42154975,-122.7310861
241737,SANTA ROSA,ASTON AVE & JOHN RICHARDS WAY,95404.0,38.42441393,-122.7066315
241738,SANTA ROSA,3RD ST & BROOKWOOD AVE,95404.0,38.442735299999995,-122.7066597
241739,SANTA ROSA,9TH ST & MORGAN ST,95401.0,38.44250791,-122.721028
241740,SANTA ROSA,JENNINGS AVE & NYLA PL,95401.0,38.44978962,-122.752269
241741,SANTA ROSA,GUERNEVILLE RD & RANGE AVE,95401.0,38.45884356,-122.7326085
241742,SANTA ROSA,COFFEY MEADOW DR & COFFEY MEADOW PL & PINE MEADOW DR,95403.0,38.47584242,-122.7512065
241743,SANTA ROSA,FOUNTAINGROVE PKWY & STAGECOACH RD,95403.0,38.48614335,-122.71096899999999
241744,SANTA ROSA,4TH ST & FARMERS LN & HWY 12,95405.0,38.44972,-122.68848009999999
241745,SANTA ROSA,CLEVELAND AVE & RUSSELL AVE,95403.0,38.46919178,-122.72937320000001
241746,SANTA ROSA,BENNETT VALLEY RD & GRAND AVE,95404.0,38.43101245,-122.7093524
241747,SANTA ROSA,FULTON RD & GUERNEVILLE RD,95403.0,38.45254856,-122.7696375
241748,SANTA ROSA,RANGE AVE & RUSSELL AVE,95403.0,38.46912427,-122.7326346
241749,SANTA ROSA,4TH ST & MENDOCINO AVE & SANTA ROSA AVE,95404.0,38.44046206,-122.7140115
241750,SANTA ROSA,BROOKWOOD AVE & SONOMA AVE,95404.0,38.44036347,-122.70283090000001
241751,SANTA ROSA,6TH ST & MORGAN ST & NB SR DOWNTOWN ONRAMP,95401.0,38.43992913,-122.7193773
241752,SANTA ROSA,5TH ST & MORGAN ST,95401.0,38.439145399999994,-122.7188437
241753,SANTA ROSA,GOLDFIELD LN & PINERCREST DR & PIONEER WAY,95403.0,38.46954965,-122.7596794
241754,SANTA ROSA,MCMINN AVE & ROSELAND AVE & SEBASTOPOL RD,95407.0,38.42894733,-122.73236999999999
241755,SANTA ROSA,ROWE DR & SCHURMAN DR,95403.0,38.46276097,-122.719315
241756,SANTA ROSA,EARLE ST & SANTA ROSA AVE,95404.0,38.43022801,-122.71107930000001
241757,SANTA ROSA,RINCON RIDGE DR & SHELTER GLEN WAY,95404.0,38.49035449,-122.68964220000001
241758,SANTA ROSA,BEDFORD ST & COMPTON AVE,95404.0,38.41696837,-122.7058154
241759,SANTA ROSA,KELSEY KNLS & TILLMONT WAY,95403.0,38.47564695,-122.71023659999999
241760,SANTA ROSA,BRIGGS AVE & FRANCES ST & RANGE AVE,95401.0,38.45032099,-122.728866
241761,SANTA ROSA,MELITA RD & QUEEN ANNE DR,95409.0,38.46063198,-122.6444332
241762,SANTA ROSA,PEACH TREE LN & PLUM TREE LN,95403.0,38.46904779,-122.7491158
241763,SANTA ROSA,CANTERBURY DR & WARWICK DR,95405.0,38.423854999999996,-122.672339
241764,SANTA ROSA,BENT TREE PL & PARKER HILL RD & VINTAGE CIR,95404.0,38.48721196,-122.7069247
241765,SANTA ROSA,GUERNEVILLE RD & RANGE AVE,95401.0,38.45884356,-122.7326085
241766,SANTA ROSA,MCBRIDE LN & STATE FARM DR,95403.0,38.46623454,-122.73023130000001
241767,SANTA ROSA,PINERCREST DR & QUAIL HOLLOW DR,95403.0,38.463774799999996,-122.76695600000001
241768,SANTA ROSA,CARA DR & MIDDLE RINCON RD & REDWOOD CT,95409.0,38.47473016,-122.6717504
241769,SANTA ROSA,DUTTON AVE & WALKHAM PL,95407.0,38.4280234,-122.7250038
241770,SANTA ROSA,BEDFORD ST & LANSBURY ST,95404.0,38.41906182,-122.70772959999998
241771,SANTA ROSA,BETHARDS DR & CREEKSIDE RD,95405.0,38.42936244,-122.6623324
241772,SANTA ROSA,BAY VILLAGE AVE & BAY VILLAGE CIR & MARLOW RD,95403.0,38.46563068,-122.7512033
241773,SANTA ROSA,CHARLES ST & SANTA ROSA AVE,95404.0,38.43535628,-122.7120801
241774,SANTA ROSA,MONTGOMERY DR & SOTOYOME ST,95405.0,38.44285521,-122.7017068
241775,SANTA ROSA,BROOKWOOD AVE & SONOMA AVE,95404.0,38.44036347,-122.70283090000001
241776,SANTA ROSA,CHATHAM DR & FULTON RD & SEQUOIA CIR,95401.0,38.44383638,-122.76961940000001
241777,SANTA ROSA,CLOVER DR & W COLLEGE AVE,95401.0,38.44540732,-122.7394594
241778,SANTA ROSA,BRITTAIN LN & OCCIDENTAL RD,95401.0,38.42957692,-122.75232290000001
241779,SANTA ROSA,D ST & SONOMA AVE,95404.0,38.43799433,-122.70998449999999
241780,SANTA ROSA,CONTRA COSTA DR & SISKIYOU AVE,95405.0,38.43529674,-122.6655357
241781,SANTA ROSA,BAKER AVE & COLGAN AVE & SANTA ROSA AVE,95404.0,38.42120417,-122.71350090000001
241782,SANTA ROSA,PRIVET WAY & WOODSAGE WAY,95404.0,38.42481857,-122.6913952
241783,SANTA ROSA,4TH ST & E ST,95404.0,38.4419527,-122.7107402
241784,SANTA ROSA,TOWNVIEW AVE & TOWNVIEW LN,95405.0,38.43525419,-122.6859145
241785,SANTA ROSA,DONNA MARIA WAY & JUAN CT,95401.0,38.43554836,-122.7624635
241786,SANTA ROSA,FULTON RD & JENES LN,95403.0,38.45915968,-122.76964850000002
241787,SANTA ROSA,PACIFIC AVE & STEWART ST,95404.0,38.45307557,-122.70612479999998
241788,SANTA ROSA,3RD ST & E ST,95404.0,38.44114633,-122.71012549999999
241789,SANTA ROSA,CHERIE WAY & DUTTON AVE,95407.0,38.42353584,-122.7245168
241790,SANTA ROSA,CLEVELAND AVE & RIPLEY ST,95401.0,38.44239595,-122.72459040000001
241791,SANTA ROSA,DONAHUE AVE & JUANITA CT,95401.0,38.43113007,-122.759956
241792,SANTA ROSA,EASTMOOR DR & NEOTOMAS AVE,95405.0,38.43263169,-122.67599150000001
241793,SANTA ROSA,3RD ST & PIERCE ST,95404.0,38.44403502,-122.70426709999998
241794,SANTA ROSA,KIERAN CT & NEWANGA AVE,95405.0,38.44385098,-122.6615231
241795,SANTA ROSA,RICHMOND DR & SALEM AVE,95401.0,38.45956577,-122.7190646
241796,SANTA ROSA,EDWARDS AVE & HERBERT ST,95401.0,38.45406102,-122.7340969
241797,SANTA ROSA,CASS RD & DUTTON MEADOW,95407.0,38.4076149,-122.7294369
241798,SANTA ROSA,CAMPBELL DR & MALIN PL,95407.0,38.41997037,-122.7433281
241799,SANTA ROSA,CHESTNUT ST & SEBASTOPOL RD,95407.0,38.43193924,-122.7196893
241800,SANTA ROSA,GUERNEVILLE RD & MARLOW RD,95403.0,38.45258756,-122.7513351
241801,SANTA ROSA,ANGUS WAY & PRIMROSE AVE,95407.0,38.39203156,-122.73535290000001
241802,SANTA ROSA,BEDFORD ST & COMPTON AVE,95404.0,38.41696837,-122.7058154
241803,SANTA ROSA,JUILLIARD PARK DR & SANTA ROSA AVE,95404.0,38.434241,-122.71183899999998
241804,SANTA ROSA,10TH ST & B ST,95401.0,38.44392348,-122.7187663
241805,SANTA ROSA,MANCINI ST & TROMBETTA ST,95407.0,38.42320746,-122.73936950000001
241806,SANTA ROSA,4TH ST & HOPE ST,95404.0,38.44315547,-122.7081412
241807,SANTA ROSA,COFFEY LN & PINER RD,95403.0,38.46873386,-122.74485390000001
241808,SANTA ROSA,HEARN AVE & STONY POINT RD & W HEARN AVE,95407.0,38.41211271,-122.74136740000002
241809,SANTA ROSA,ALVARADO AVE & VALLEJO ST,95404.0,38.43898884,-122.6926591
241810,SANTA ROSA,MILICENT WAY & SANTA ROSA AVE,95407.0,38.42030020000001,-122.71351090000002
241811,SANTA ROSA,MENDOCINO AVE & NASON ST,95401.0,38.4497815,-122.71755870000001
241812,SANTA ROSA,DOUGLAS DR & YULUPA AVE,95405.0,38.43814749,-122.6705116
241813,SANTA ROSA,BENTON ST & HUMBOLDT ST,95404.0,38.44778958,-122.7146692
241814,SANTA ROSA,S A ST & SEBASTOPOL AVE,95401.0,38.43307028,-122.7149396
241815,SANTA ROSA,BOND ST & CONNIE ST,95407.0,38.40586434,-122.7100557
241816,SANTA ROSA,BEDFORD ST & COMPTON AVE,95404.0,38.41696837,-122.7058154
241817,SANTA ROSA,ASTON AVE & HENDLEY ST,95404.0,38.42585217,-122.7024686
241818,SANTA ROSA,JANERO DR & STONY POINT RD,95407.0,38.42359468,-122.74087759999999
241819,SANTA ROSA,SUNNY WOOD CIR & SWEET GRASS LN,95407.0,38.41248352,-122.7493996
241820,SANTA ROSA,GRAY CT & SONOMA AVE,95404.0,38.43965306,-122.70543
241821,SANTA ROSA,CHANATE RD & FITZPATRICK CT & HIDDEN VALLEY DR,95404.0,38.47149302,-122.7010017
241822,SANTA ROSA,TOWNVIEW AVE & TOWNVIEW LN,95405.0,38.43525419,-122.6859145
241823,SANTA ROSA,CLOVER DR & DUDLEY PL,95401.0,38.45080158,-122.74396200000001
241824,SANTA ROSA,STONY CIR & STONY POINT RD & W 9TH ST,95401.0,38.440376799999996,-122.744635
241825,SANTA ROSA,CRAWFORD CT & MENDOCINO AVE,95401.0,38.4515494,-122.7174904
241826,SANTA ROSA,OLDFIELD WAY & WALL PL,95401.0,38.43294769,-122.7445656
241827,SANTA ROSA,MISSION BLVD & MISSION CIR & QUIGG DR,95409.0,38.45803531,-122.6729237
241828,SANTA ROSA,BICENTENNIAL WAY & SB BICENTENNIAL WY ONRAMP,95403.0,38.4706443,-122.72981340000001
241829,SANTA ROSA,BEDFORD ST & KAWANA SPRINGS RD,95404.0,38.41651065,-122.7058
241830,SANTA ROSA,CRAWFORD CT & MENDOCINO AVE,95401.0,38.4515494,-122.7174904
241831,SANTA ROSA,COFFEY LN & GUERNEVILLE RD & HERBERT LN,95403.0,38.45651115,-122.7362721
241832,SANTA ROSA,BRIDLE TRL & MONTGOMERY LN,95409.0,38.46001009,-122.66281969999999
241833,SANTA ROSA,CHALLENGER WAY & CORPORATE CENTER PKWY,95407.0,38.42417658,-122.753153
241834,SANTA ROSA,CHALLENGER WAY & CORPORATE CENTER PKWY,95407.0,38.42417658,-122.753153
241835,SANTA ROSA,GOODMAN AVE & SEBASTOPOL RD,95407.0,38.43102634,-122.7235509
241836,SANTA ROSA,BROOKWOOD AVE & SONOMA AVE,95404.0,38.44036347,-122.70283090000001
241837,SANTA ROSA,CLEMENT AVE & SALEM AVE,95401.0,38.45878593,-122.7186729
241838,SANTA ROSA,CARA DR & MIDDLE RINCON RD & REDWOOD CT,95409.0,38.47473016,-122.6717504
241839,SANTA ROSA,CLEMENT AVE & MENDOCINO AVE,95401.0,38.45909335,-122.71717520000001
241840,SANTA ROSA,PRESSLEY ST & TEMPLE AVE,95404.0,38.42938738,-122.70549840000001
241841,SANTA ROSA,PAULIN DR & VENTURA AVE,95403.0,38.46720043,-122.72433079999999
241842,SANTA ROSA,ASTON AVE & ASTON WAY & PETALUMA HILL RD,95404.0,38.42386438,-122.7081955
241843,SANTA ROSA,BILLIE JEAN ST & LOUIS KROHN DR,95407.0,38.425824,-122.761477
241844,SANTA ROSA,CLEVELAND AVE & TERRY LN,95403.0,38.46421777,-122.72841559999999
241845,SANTA ROSA,5TH ST & DAVIS ST,95401.0,38.43862443,-122.71994099999999
241846,SANTA ROSA,NECTARINE DR & WOLFBERRY WAY,95404.0,38.42342681,-122.6938162
241847,SANTA ROSA,CLEVELAND AVE & TERRY LN,95403.0,38.46421777,-122.72841559999999
241848,SANTA ROSA,BENNETT VALLEY RD & FARMERS LN,95405.0,38.43286531,-122.68910249999999
241849,SANTA ROSA,RIDGWAY AVE & RIPLEY ST,95401.0,38.44910098,-122.72447549999998
241850,SANTA ROSA,AARON DR & SLEEPY HOLLOW DR,95404.0,38.47722967,-122.701944
241851,SANTA ROSA,HOLBROOK ST & ROBERTS AVE,95407.0,38.43292376,-122.7225394
241852,SANTA ROSA,MCMINN AVE & ROSELAND AVE & SEBASTOPOL RD,95407.0,38.42894733,-122.73236999999999
241853,SANTA ROSA,ALVARADO AVE & VALLEJO ST,95404.0,38.43898884,-122.6926591
241854,SANTA ROSA,DORADO CT & PLATA CT,95403.0,38.45870787,-122.7383884
241855,SANTA ROSA,MISSION BLVD & MISSION CIR & QUIGG DR,95409.0,38.45803531,-122.6729237
241856,SANTA ROSA,EDWARDS AVE & RACCOON LN,95401.0,38.455409499999995,-122.72817260000001
241857,SANTA ROSA,BELLEVUE AVE & SANTA ROSA AVE,95407.0,38.40186649,-122.71348429999999
241858,SANTA ROSA,3RD ST & A ST,95401.0,38.43817831,-122.7167402
241859,SANTA ROSA,5TH ST & RILEY ST,95404.0,38.4414286,-122.71379180000001
241860,SANTA ROSA,GUERNEVILLE RD & MARLOW RD,95403.0,38.45258756,-122.7513351
241861,SANTA ROSA,BEACHWOOD DR & INGLEWOOD DR,95407.0,38.42428844,-122.72065079999999
241862,SANTA ROSA,DAMON CT & W 8TH ST,95401.0,38.44002475,-122.74113940000001
241863,SANTA ROSA,DELPORT AVE & PAGE CT,95407.0,38.42372005,-122.73043349999999
241864,SANTA ROSA,7TH ST & BEAVER ST,95404.0,38.44369565,-122.7126676
241865,SANTA ROSA,PAULIN DR & VENTURA AVE,95403.0,38.46720043,-122.72433079999999
241866,SANTA ROSA,GUERNEVILLE RD & RIDLEY AVE,95401.0,38.45259224,-122.74625209999999
241867,SANTA ROSA,BELLEVUE AVE & SANTA ROSA AVE,95407.0,38.40186649,-122.71348429999999
241868,SANTA ROSA,10TH ST & MENDOCINO AVE,95401.0,38.44389187,-122.7165195
241869,SANTA ROSA,BANBURY CT & HADLEY HILL DR,95404.0,38.479238099999996,-122.6931267
241870,SANTA ROSA,MACKLYN AVE & MONTGOMERY DR,95405.0,38.44420275,-122.6965707
241871,SANTA ROSA,CHALLENGER WAY & CORPORATE CENTER PKWY,95407.0,38.42417658,-122.753153
241872,SANTA ROSA,BELLA VISTA WAY & LAKE PARK DR,95403.0,38.47443927,-122.71720479999999
241873,SANTA ROSA,NEOTOMAS AVE & TOWNVIEW LN,95405.0,38.43370644,-122.6872527
241874,SANTA ROSA,APACHE ST & W STEELE LN,95403.0,38.45975047,-122.7453493
241875,LARKFIELD,LAVELL RD & MARK WEST SPRINGS RD,95403.0,38.49636772,-122.75186049999999
241876,SANTA ROSA,HARVEST LN & W 3RD ST,95401.0,38.43436204,-122.74808909999999
241877,SANTA ROSA,FRANCISCO AVE & PINERCREST DR,95403.0,38.46955422,-122.7606261
241878,SANTA ROSA,CARRILLO ST & GLENN ST,95401.0,38.44674233,-122.72038090000001
241879,SANTA ROSA,CLEVELAND AVE & GUERNEVILLE RD & W STEELE LN,95401.0,38.45991177,-122.7284087
241880,SANTA ROSA,MARLOW RD & PINER RD & PINERCREST DR,95403.0,38.46709833,-122.7512155
241881,SANTA ROSA,7TH ST & A ST,95401.0,38.4414495,-122.7190885
241882,SANTA ROSA,BANYAN ST & HOLLY PARK WAY,95403.0,38.47509824,-122.74233570000001
241883,SANTA ROSA,COMMERCIAL CT & SANTA ROSA AVE,95407.0,38.41763017,-122.71351940000001
241884,SANTA ROSA,EDWARDS AVE & RANGE AVE,95401.0,38.45437446,-122.7321686
241885,SANTA ROSA,STONEHEDGE DR & SUMMERFIELD RD,95405.0,38.44160038,-122.66174029999999
241886,SANTA ROSA,5TH ST & D ST,95404.0,38.44184295,-122.7128656
241887,SANTA ROSA,MONTECITO BLVD & PESADO CALLE,95409.0,38.47664421,-122.6698253
241888,SANTA ROSA,CHERIE WAY & DUTTON AVE,95407.0,38.42353584,-122.7245168
241889,SANTA ROSA,HOPPER AVE & SB HOPPER AV OFFRAMP,95403.0,38.47971079,-122.7352915
241890,SANTA ROSA,7TH ST & MORGAN ST,95401.0,38.44106649,-122.72008590000002
241891,SANTA ROSA,AIRWAY DR & HOPPER AVE,95403.0,38.47971181,-122.73813090000002
241892,SANTA ROSA,AIRWAY DR & INDUSTRIAL DR,95403.0,38.47686128,-122.7381217
241893,SANTA ROSA,7TH ST & MORGAN ST,95401.0,38.44106649,-122.72008590000002
241894,SANTA ROSA,COFFEY LN & W STEELE LN,95403.0,38.45998229,-122.7403416
241895,SANTA ROSA,ASTON AVE & HENDLEY ST,95404.0,38.42585217,-122.7024686
241896,SANTA ROSA,7TH ST & A ST,95401.0,38.4414495,-122.7190885
241897,SANTA ROSA,ADMINISTRATION DR & CHANATE RD & MENDOCINO AVE,95403.0,38.46505778,-122.71938200000001
241898,SANTA ROSA,BEAR CUB WAY & MENDOCINO AVE & PACIFIC AVE,95401.0,38.45336896,-122.717404
241899,SANTA ROSA,PHOENIX AVE & YULUPA AVE,95405.0,38.43556615,-122.66853490000001
241900,SANTA ROSA,PHOENIX AVE & YULUPA AVE,95405.0,38.43556615,-122.66853490000001
241901,SANTA ROSA,LEWIS RD & MENDOCINO AVE & STEELE LN,95403.0,38.46101229,-122.71717120000001
241902,SANTA ROSA,OLDFIELD WAY & WALL PL,95401.0,38.43294769,-122.7445656
241903,SANTA ROSA,LEISURE PARK CIR & OCCIDENTAL RD,95401.0,38.42973908,-122.7500199
241904,SANTA ROSA,N WRIGHT RD & SEBASTOPOL RD,95407.0,38.42479011,-122.7688835
241905,SANTA ROSA,BEAR CUB WAY & MENDOCINO AVE & PACIFIC AVE,95401.0,38.45336896,-122.717404
241906,SANTA ROSA,LEWIS RD & LOMITAS AVE,95404.0,38.46121774,-122.71653300000001
241907,SANTA ROSA,JANERO DR & MESA WAY,95407.0,38.42505828,-122.73786229999999
241908,SANTA ROSA,MENDOCINO AVE & SCHURMAN DR,95403.0,38.46311909,-122.7182737
241909,SANTA ROSA,BELLEVUE AVE & DUTTON MEADOW,95407.0,38.40183154,-122.7293824
241910,SANTA ROSA,CLEVELAND AVE & FRANCES ST,95401.0,38.45025402,-122.72648290000001
241911,SANTA ROSA,JENNINGS AVE & MARLOW RD,95401.0,38.44962054,-122.7513244
241912,WEST SANTA ROSA,GAYLE DR & WHISPERING CREEK DR,95403.0,38.509105299999995,-122.7784983
241913,SANTA ROSA,8TH ST & A ST,95401.0,38.44204309,-122.71949609999999
241914,SANTA ROSA,MONTECITO BLVD & MONTECITO CT,95409.0,38.47772605,-122.6660291
241915,SANTA ROSA,FULTON RD & W COLLEGE AVE,95401.0,38.44532601,-122.76962730000001
241916,SANTA ROSA,CORONADO CIR & HERMOSA CIR,95409.0,38.47518178,-122.65668429999998
241917,SANTA ROSA,LINK LN & SUNNY MANOR WAY,95401.0,38.43985901,-122.73373500000001
241918,SANTA ROSA,CLEVELAND AVE & LINCOLN ST,95401.0,38.44500029,-122.7266618
241919,SANTA ROSA,CLEVELAND AVE & COLLEGE AVE,95401.0,38.44589407,-122.726646
241920,SANTA ROSA,DEEP ROSE PL & MYRSINE WAY,95407.0,38.42952454,-122.720975
241921,SANTA ROSA,BAY VILLAGE AVE & BAY VILLAGE CIR & MARLOW RD,95403.0,38.46563068,-122.7512033
241922,SANTA ROSA,FARMERS LN & MONTGOMERY DR,95405.0,38.44654316,-122.6880353
241923,SANTA ROSA,AARON DR & BROOKDALE DR,95404.0,38.477913,-122.701834
241924,SANTA ROSA,SKYFARM DR & SPLIT RAIL CT,95403.0,38.50559688,-122.7209607
241925,SANTA ROSA,CORBY AVE & EARLE ST,95407.0,38.42937004,-122.71831329999999
241926,SANTA ROSA,RANGE AVE & RUSSELL AVE,95403.0,38.46912427,-122.7326346
241927,SANTA ROSA,GRANADA DR & MIDDLE RINCON RD,95409.0,38.47060982,-122.6690578
241928,SANTA ROSA,RUTLEDGE AVE & WARE AVE,95404.0,38.42902586,-122.7097084
241929,SANTA ROSA,BENT TREE PL & PARKER HILL RD & VINTAGE CIR,95404.0,38.48721196,-122.7069247
241930,SANTA ROSA,NAVARRO ST & W COLLEGE AVE,95401.0,38.44524539,-122.75437520000001
241931,SANTA ROSA,3RD ST & SANTA ROSA AVE,95404.0,38.43965855,-122.71341480000001
241932,SANTA ROSA,D ST & SONOMA AVE,95404.0,38.43799433,-122.70998449999999
241933,SANTA ROSA,KILARNEY CIR & THOMAS LAKE HARRIS DR,95403.0,38.49001546,-122.7228321
241934,SANTA ROSA,CHERRYWOOD DR & ROSEWOOD DR,95407.0,38.41937915,-122.7185989
241935,SANTA ROSA,KILARNEY CIR & THOMAS LAKE HARRIS DR,95403.0,38.49001546,-122.7228321
241936,SANTA ROSA,MARLOW RD & WIND MILL CIR & WINDMILL DR,95403.0,38.46381639,-122.7511905
241937,SANTA ROSA,BAMBI LN & MIDDLE RINCON RD,95409.0,38.473887,-122.67126640000001
241938,SANTA ROSA,RAYCREST CT & ROCKY KNOLL WAY,95404.0,38.48238038,-122.6891582
241939,SANTA ROSA,EDDY DR & ROBIN WAY,95407.0,38.40026685,-122.7203548
241940,SANTA ROSA,CHATEAU CT & VINTAGE CIR,95404.0,38.48774469,-122.7079779
241941,SANTA ROSA,AARON DR & BROOKDALE DR,95404.0,38.47819817,-122.70168659999999
241942,SANTA ROSA,OCCIDENTAL RD & STONY POINT RD & WB STONY POINT RD OFFRAMP & WB STONY POINT RD ONRAMP,95401.0,38.43182581,-122.7419237
241943,SANTA ROSA,NEWMARK DR & THISTLE LN,95407.0,38.39871486,-122.716955
241944,SANTA ROSA,E JASMINE CIR & LAUREL GROVE CIR,95407.0,38.427652,-122.745051
241945,SANTA ROSA,MONTECITO BLVD & PESADO CALLE,95409.0,38.47664421,-122.6698253
241946,SANTA ROSA,AARON DR & BROOKDALE DR,95404.0,38.47819817,-122.70168659999999
241947,SANTA ROSA,CHATEAU CT & VINTAGE CIR,95404.0,38.48774469,-122.7079779
241948,SANTA ROSA,LEETE AVE & PARKER HILL RD,95404.0,38.48171874,-122.70485009999999
241949,SANTA ROSA,AARON DR & FLINTWOOD DR,95404.0,38.479456,-122.70149199999999
241950,SANTA ROSA,EAGLE CT & FIR RIDGE DR & TURNBERRY CIR,95403.0,38.49535161,-122.7066236
241951,SANTA ROSA,CEDARWOOD DR & W COLLEGE AVE & ZUUR ST,95401.0,38.44554535,-122.73680139999999
241952,SANTA ROSA,BELLA VISTA WAY & PALISADES DR,95403.0,38.47487728,-122.71711440000001
241953,SANTA ROSA,AARON CT & AARON DR,95404.0,38.48074772,-122.70266129999999
241954,SANTA ROSA,CRESCENT CIR & FIR RIDGE DR & STONY OAK CT,95403.0,38.4946109,-122.70681780000001
241955,SANTA ROSA,AARON DR & FLINTWOOD DR,95404.0,38.479456,-122.70149199999999
241956,SANTA ROSA,DEXTER ST & MENDOCINO AVE,95401.0,38.45735888,-122.71725579999999
241957,SANTA ROSA,CHATEAU CT & VINTAGE CIR,95404.0,38.48774469,-122.7079779
241958,SANTA ROSA,BUTTE CT & BUTTE DR & HOME RD,95403.0,38.47057796,-122.73832979999999
241959,SANTA ROSA,ALICE ST & SUNRIDGE DR,95405.0,38.45101284,-122.6867938
241960,SANTA ROSA,BLACKHAWK CIR & BLUESAGE CT & SOUTHRIDGE DR,95403.0,38.49162562,-122.70681189999999
241961,SANTA ROSA,ALKIRST CT & ALTURIA HTS,95403.0,38.47592119,-122.7145203
241962,SANTA ROSA,AHL PARK CT & SUMMERFIELD RD,95405.0,38.45154944,-122.66967520000001
241963,SANTA ROSA,BAKER AVE & NB BAKER AV OFFRAMP & NB BAKER AV ONRAMP,95407.0,38.42135934,-122.7147642
241964,SANTA ROSA,STANHOPE CT & WEDGEWOOD WAY,95404.0,38.49079736,-122.7009265
241965,SANTA ROSA,CHATEAU CT & VINTAGE CIR,95404.0,38.48774469,-122.7079779
241966,SANTA ROSA,OCCIDENTAL RD & STONY POINT RD & WB STONY POINT RD OFFRAMP & WB STONY POINT RD ONRAMP,95401.0,38.43182581,-122.7419237
241967,SANTA ROSA,KELSEY KNLS & TILLMONT WAY,95403.0,38.47564695,-122.71023659999999
241968,SANTA ROSA,ASTON AVE & MIRAS LN,95404.0,38.425103,-122.70460220000001
241969,SANTA ROSA,ADMINISTRATION DR & CHANATE RD & MENDOCINO AVE,95403.0,38.46505778,-122.71938200000001
241970,SANTA ROSA,MEADOWBROOK CT & W STEELE LN,95403.0,38.45998363,-122.7346763
241971,SANTA ROSA,ALTRURIA DR & FOUNTAINVIEW CIR,95403.0,38.47827155,-122.7161967
241972,SANTA ROSA,CHATEAU CT & VINTAGE CIR,95404.0,38.48774469,-122.7079779
241973,SANTA ROSA,PARK GARDENS DR & RINCON RIDGE DR,95404.0,38.49013601,-122.6922854
241974,SANTA ROSA,ELKSTONE PL & PARK GARDENS DR,95404.0,38.48879773,-122.69084779999999
241975,SANTA ROSA,SB STEELE LN OFFRAMP & SB STEELE LN ONRAMP & STEELE LN & W STEELE LN,95403.0,38.45993819,-122.7267705
241976,SANTA ROSA,PEPPERWOOD RD & VIOLETTI RD,95409.0,38.45501132,-122.6474856
241977,SANTA ROSA,ELKSTONE PL & PARK GARDENS DR,95404.0,38.48879773,-122.69084779999999
241978,SANTA ROSA,GUERNEVILLE RD & LANCE DR,95401.0,38.45453356,-122.7393845
241979,SANTA ROSA,ALTRURIA DR & FOUNTAINVIEW CIR,95403.0,38.47827155,-122.7161967
241980,SANTA ROSA,COMALLI ST & LAZZINI AVE,95407.0,38.42243235,-122.7366743
241981,SANTA ROSA,MILLBROOK DR & PARK GARDENS DR,95404.0,38.48827,-122.68997399999999
241982,SANTA ROSA,ALTRURIA DR & FOUNTAINVIEW CIR,95403.0,38.47827155,-122.7161967
241983,SANTA ROSA,DOVERTON CT & PAXTON PL,95404.0,38.48553019,-122.6912219
241984,SANTA ROSA,10TH ST & RIPLEY ST,95401.0,38.44342133,-122.72461470000002
241985,SANTA ROSA,CHAPALA DR & ESTRELLA DR,95403.0,38.46644047,-122.73723170000001
241986,SANTA ROSA,APACHE ST & HURON CT,95403.0,38.46036604,-122.74523070000001
241987,SANTA ROSA,RCOP & SEBASTOPOL RD,95407.0,38.43024644,-122.7269034
241988,SANTA ROSA,ALMOND CT & DUPONT DR,95409.0,38.470332,-122.6492118
241989,SANTA ROSA,3RD ST & MONTGOMERY DR,95404.0,38.44302503,-122.7060213
241990,SANTA ROSA,ALBION PL & W COLLEGE AVE,95401.0,38.44524154,-122.7535248
241991,SANTA ROSA,4TH ST & MENDOCINO AVE & SANTA ROSA AVE,95404.0,38.44046206,-122.7140115
241992,SANTA ROSA,BENJAMINS RD & SPEERS RD,95409.0,38.47080913,-122.66765249999999
241993,SANTA ROSA,BROWN ST & PINE ST,95404.0,38.43338422,-122.70911609999999
241994,SANTA ROSA,MCMINN AVE & ROSELAND AVE & SEBASTOPOL RD,95407.0,38.42894733,-122.73236999999999
241995,SANTA ROSA,SPARROW CREEK ST & W COLLEGE AVE,95401.0,38.44521652,-122.74903090000001
241996,SANTA ROSA,BELLEVUE AVE & TERRIMAY LN,95407.0,38.40172352,-122.71088229999998
241997,SANTA ROSA,12TH ST & STEWART ST,95404.0,38.44634726,-122.7068557
241998,SANTA ROSA,MILICENT WAY & SANTA ROSA AVE,95407.0,38.42030020000001,-122.71351090000002
241999,SANTA ROSA,BREEZE WAY & TOKAY ST,95404.0,38.42071863,-122.7044997
242000,SANTA ROSA,TESCONI CIR & TESCONI CT,95401.0,38.44786278,-122.7349648
242001,SANTA ROSA,PUEBLO CT N & PUEBLO CT S & RINCONADA DR,95409.0,38.46892046,-122.6757947
242002,SANTA ROSA,S E ST & SONOMA AVE,95404.0,38.43879551,-122.7084638
242003,SANTA ROSA,RED OAK CIR & RED OAK DR,95403.0,38.46808497,-122.76084660000001
242004,SANTA ROSA,TERRACE WAY & TOWN AND COUNTRY DR,95404.0,38.45414865,-122.70293059999999
242005,SANTA ROSA,FRAZIER AVE & GRAND AVE,95404.0,38.42757228,-122.7073644
242006,SANTA ROSA,RANGE AVE & STATE FARM DR,95403.0,38.46624529,-122.73264820000001
242007,SANTA ROSA,FLAT ROCK CIR & KINTYRE WAY,95409.0,38.45402251,-122.6786467
242008,SANTA ROSA,CARA DR & MIDDLE RINCON RD & REDWOOD CT,95409.0,38.47473016,-122.6717504
242009,SANTA ROSA,KING ST & SILVA AVE,95404.0,38.45861228,-122.7105803
242010,SANTA ROSA,CORBY AVE & TALMADGE DR,95407.0,38.40674665,-122.71640320000002
242011,SANTA ROSA,GADDIS CT & WRIGHT ST,95404.0,38.45212878,-122.7094213
242012,SANTA ROSA,HUGHES AVE & MCMINN AVE,95407.0,38.42568262,-122.7319736
242013,SANTA ROSA,MENDOCINO AVE & SILVA AVE,95401.0,38.45880608,-122.717197
242014,SANTA ROSA,KING ST & PACIFIC AVE,95404.0,38.45319554,-122.7106846
242015,SANTA ROSA,ONYX WAY & SAPPHIRE WAY,95404.0,38.41859032,-122.70370890000001
242016,SANTA ROSA,BEAVER ST & HOWARD ST,95404.0,38.44866877,-122.71218300000001
242017,SANTA ROSA,ILLINOIS AVE & SUCHER LN,95401.0,38.45805477,-122.7247838
242018,SANTA ROSA,4TH ST & FARMERS LN & HWY 12,95405.0,38.44972,-122.68848009999999
242019,SANTA ROSA,BLUEBELL DR & COFFEY LN,95403.0,38.465888,-122.741677
242020,SANTA ROSA,BARNETT ST & S DAVIS ST,95407.0,38.43051389,-122.7160332
242021,SANTA ROSA,BAKER AVE & CORBY AVE,95407.0,38.42077055,-122.71735149999999
242022,SANTA ROSA,TACHEVAH DR & YULUPA AVE,95405.0,38.43179336,-122.6683081
242023,SANTA ROSA,BENTON ST & RIPLEY ST,95401.0,38.44810675,-122.72450559999999
242024,SANTA ROSA,BENTON ST & ORCHARD ST,95404.0,38.44775445,-122.71343359999999
242025,SANTA ROSA,PARAMONT ST & SAHARA ST,95403.0,38.47344083,-122.7271309
242026,SANTA ROSA,HOPPER AVE & RANDON WAY,95403.0,38.47814409,-122.75556040000001
242027,SANTA ROSA,5TH ST & MORGAN ST,95401.0,38.439145399999994,-122.7188437
242028,SANTA ROSA,ESCALERO RD & YERBA BUENA RD,95409.0,38.47207269,-122.64235959999999
242029,SANTA ROSA,4TH ST & D ST,95404.0,38.44121202,-122.7123828
242030,SANTA ROSA,SEBASTOPOL RD & STONY POINT RD,95407.0,38.42685471,-122.7413163
242031,SANTA ROSA,DOWD DR & WILJAN CT,95407.0,38.40486727,-122.7195443
242032,SANTA ROSA,FARMERS LN & HOEN AVE FRONTAGE RD & HWY 12 E,95405.0,38.43516241,-122.68761950000001
242033,SANTA ROSA,BROOKWOOD AVE & SONOMA AVE,95404.0,38.44036347,-122.70283090000001
242034,SANTA ROSA,SANTA ROSA AVE & SONOMA AVE,95404.0,38.43665196,-122.71227809999999
242035,SANTA ROSA,BEDFORD ST & LANSBURY ST,95404.0,38.41906182,-122.70772959999998
242036,SANTA ROSA,4TH ST & D ST,95404.0,38.44121202,-122.7123828
242037,SANTA ROSA,MENDOCINO AVE & SCHURMAN DR,95403.0,38.46311909,-122.7182737
242038,SANTA ROSA,TRACKS & W STEELE LN,95403.0,38.45997829,-122.7406116
242039,SANTA ROSA,DUTTON AVE & SEBASTOPOL RD,95407.0,38.43059702,-122.7253189
242040,SANTA ROSA,SEBASTOPOL RD & WEST AVE,95407.0,38.42978491,-122.72890819999999
242041,SANTA ROSA,CORBY AVE & TALMADGE DR,95407.0,38.40674665,-122.71640320000002
242042,SANTA ROSA,MARIN DR & SACRAMENTO AVE,95405.0,38.43698808,-122.66666570000001
242043,SANTA ROSA,CLEMENT AVE & MENDOCINO AVE,95401.0,38.45909335,-122.71717520000001
242044,SANTA ROSA,5TH ST & RILEY ST,95404.0,38.4414286,-122.71379180000001
242045,SANTA ROSA,5TH ST & MENDOCINO AVE,95401.0,38.44110696,-122.71449820000001
242046,SANTA ROSA,NORDYKE AVE & YOUNG DR,95403.0,38.46146828,-122.72371299999999
242047,SANTA ROSA,BROOKWOOD AVE & SONOMA AVE,95404.0,38.44036347,-122.70283090000001
242048,SANTA ROSA,4TH ST & CHINN ST,95404.0,38.44379613,-122.706748
242049,SANTA ROSA,HARVEST LN & OCCIDENTAL RD,95401.0,38.42992011,-122.7476531
242050,SANTA ROSA,CALISTOGA RD & HWY 12,95409.0,38.4649157,-122.6533696
242051,SANTA ROSA,SEBASTOPOL RD & STONY POINT RD,95407.0,38.42685471,-122.7413163
242052,SANTA ROSA,4TH ST & OLD COURTHOUSE SQ,95404.0,38.44072571,-122.71343290000002
242053,SANTA ROSA,FRAZIER AVE & GRAND AVE,95404.0,38.42757228,-122.7073644
242054,SANTA ROSA,RICHMOND DR & SALEM AVE,95401.0,38.45956577,-122.7190646
242055,SANTA ROSA,BROOKWOOD AVE & SONOMA AVE,95404.0,38.44036347,-122.70283090000001
242056,SANTA ROSA,1ST ST & B ST,95401.0,38.43776285,-122.7142084
242057,SANTA ROSA,MENDOCINO AVE & SILVA AVE,95401.0,38.45880608,-122.717197
242058,SANTA ROSA,BICENTENNIAL WAY & SB BICENTENNIAL WY ONRAMP,95403.0,38.4706443,-122.72981340000001
242059,SANTA ROSA,KASHMIR DR & MONTGOMERY DR,95409.0,38.45863202,-122.6693578
242060,SANTA ROSA,MENDOCINO AVE & SILVA AVE,95401.0,38.45880608,-122.717197
242061,SANTA ROSA,TOWNVIEW AVE & TOWNVIEW LN,95405.0,38.43525419,-122.6859145
242062,SANTA ROSA,GUERNEVILLE RD & WEST OAK CIR,95401.0,38.45255091,-122.77187240000002
242063,SANTA ROSA,ROWE DR & SCHURMAN DR,95403.0,38.46276097,-122.719315
242064,SANTA ROSA,LUDWIG AVE & S WRIGHT RD,95407.0,38.40351116,-122.76878070000001
242065,SANTA ROSA,BROOKWOOD AVE & SONOMA AVE,95404.0,38.44036347,-122.70283090000001
242066,SANTA ROSA,JACKY DR & MAYETTE AVE,95405.0,38.44187929,-122.6740577
242067,SANTA ROSA,TOWNVIEW AVE & TOWNVIEW LN,95405.0,38.43525419,-122.6859145
242068,SANTA ROSA,CLEVELAND AVE & EDWARDS AVE,95401.0,38.45576138,-122.7264186
242069,SANTA ROSA,MENDOCINO AVE & SCHURMAN DR,95403.0,38.46311909,-122.7182737
242070,SANTA ROSA,CARRILLO ST & CLEVELAND AVE,95401.0,38.44691519,-122.72659569999999
242071,SANTA ROSA,HEARN AVE & WHITEWOOD DR,95407.0,38.41439771,-122.7205574
242072,SANTA ROSA,MILICENT WAY & SANTA ROSA AVE,95407.0,38.42030020000001,-122.71351090000002
242073,SANTA ROSA,BROOKWOOD AVE & SONOMA AVE,95404.0,38.44036347,-122.70283090000001
242074,SANTA ROSA,CLEVELAND AVE & STATE FARM DR,95403.0,38.46624747,-122.72841409999998
242075,SANTA ROSA,BUCKINGHAM DR & ORANGE ST,95401.0,38.4346687,-122.71825890000001
242076,SANTA ROSA,CARDINAL WAY & HWY 12,95409.0,38.46078101,-122.67118190000001
242077,SANTA ROSA,BARHAM AVE & SANTA ROSA AVE,95404.0,38.42721652,-122.7132107
242078,SANTA ROSA,ADMINISTRATION DR & CHANATE RD & MENDOCINO AVE,95403.0,38.46505778,-122.71938200000001
242079,SANTA ROSA,BIWANA DR & LIANA DR,95407.0,38.41831872,-122.7306475
242080,SANTA ROSA,HAHMAN DR & MONTGOMERY DR,95405.0,38.44701863,-122.6863759
242081,SANTA ROSA,SLATER ST & SPENCER AVE,95404.0,38.45065962,-122.7158544
242082,SANTA ROSA,SANTA ROSA AVE & SONOMA AVE,95404.0,38.43665196,-122.71227809999999
242083,SANTA ROSA,NORTH ST & PACIFIC AVE,95404.0,38.45312095,-122.70817
242084,SANTA ROSA,5TH ST & B ST,95401.0,38.44038228,-122.7161508
242085,SANTA ROSA,DEBBIE DR & JAVORE DR,95407.0,38.41962875,-122.72542890000001
242086,SANTA ROSA,HWY 12 & MIDDLE RINCON RD,95409.0,38.46383244,-122.6649856
242087,SANTA ROSA,OLIVE ST & PEACH ST,95407.0,38.42402418,-122.71662830000001
242088,SANTA ROSA,1ST ST & B ST,95401.0,38.43776285,-122.7142084
242089,SANTA ROSA,5TH ST & WILSON ST,95401.0,38.43805776,-122.7211803
242090,SANTA ROSA,PRINCETON DR & YULUPA AVE,95405.0,38.44339187,-122.674586
242091,SANTA ROSA,CASTLEROCK CT & PARKER HILL RD,95404.0,38.47498255,-122.7035175
242092,SANTA ROSA,MENDOCINO AVE & SCHURMAN DR,95403.0,38.46311909,-122.7182737
242093,SANTA ROSA,GUERNEVILLE RD & RANGE AVE,95401.0,38.45884356,-122.7326085
242094,SANTA ROSA,MENDOCINO OV & SB MENDOCINO AV ONRAMP,95403.0,38.47536781,-122.7323398
242095,SANTA ROSA,FULTON RD & GUERNEVILLE RD,95403.0,38.45254856,-122.7696375
242096,SANTA ROSA,DOYLE PARK DR & SONOMA AVE,95405.0,38.44166603,-122.6981038
242097,SANTA ROSA,FULTON RD & GUERNEVILLE RD,95403.0,38.45254856,-122.7696375
242098,SANTA ROSA,CASS RD & DUTTON MEADOW,95407.0,38.4076149,-122.7294369
242099,SANTA ROSA,MT OLIVE DR & VALLEJO ST,95405.0,38.43769194,-122.68804469999999
242100,SANTA ROSA,MONTGOMERY DR & SOTOYOME ST,95405.0,38.44285521,-122.7017068
242101,SANTA ROSA,APOLLO WAY & CAPRICORN WAY,95407.0,38.42449841,-122.7501289
242102,SANTA ROSA,ADRIENNE WAY & WOODCREST DR,95401.0,38.44323495,-122.74589240000002
242103,SANTA ROSA,PIONEER WAY & RED OAK CIR,95403.0,38.46808224,-122.7603815
242104,SANTA ROSA,LISCUM ST & YUBA DR,95407.0,38.40715287,-122.7393754
242105,SANTA ROSA,HIDDEN VALLEY DR & INCLINE DR,95404.0,38.46825468,-122.69910390000001
242106,SANTA ROSA,BENTON ST & RIPLEY ST,95401.0,38.44810675,-122.72450559999999
242107,SANTA ROSA,ACACIA LN & HWY 12,95409.0,38.46230051,-122.66904170000001
242108,SANTA ROSA,MILL ST & SANTA ROSA AVE & SEBASTOPOL AVE,95404.0,38.43382248,-122.71176990000001
242109,SANTA ROSA,5TH ST & B ST,95401.0,38.44038228,-122.7161508
242110,SANTA ROSA,CLEVELAND AVE & TERRY LN,95403.0,38.46421777,-122.72841559999999
242111,SANTA ROSA,HERBERT ST & JENNINGS AVE,95401.0,38.45260372,-122.7336335
242112,SANTA ROSA,MENDOCINO AVE & SILVA AVE,95401.0,38.45880608,-122.717197
242113,SANTA ROSA,BAY VILLAGE AVE & BAY VILLAGE CIR & MARLOW RD,95403.0,38.46563068,-122.7512033
242114,SANTA ROSA,BICENTENNIAL WAY & THE OVERLOOK,95403.0,38.47173676,-122.72091370000001
242115,SANTA ROSA,SALEM AVE & STEELE LN,95403.0,38.46064396,-122.7193733
242116,SANTA ROSA,BROOKSIDE DR & CODDING DR,95405.0,38.44128863,-122.69481509999999
242117,SANTA ROSA,COMMERCIAL CT & SANTA ROSA AVE,95407.0,38.41763017,-122.71351940000001
242118,SANTA ROSA,6TH ST & MORGAN ST & NB SR DOWNTOWN ONRAMP,95401.0,38.43992913,-122.7193773
242119,SANTA ROSA,SAINT OLGA CT & STONY POINT RD,95407.0,38.39343591,-122.7416021
242120,SANTA ROSA,PAXTON PL & YORKTON WAY,95404.0,38.48489405,-122.69096040000001
242121,SANTA ROSA,ANDY WAY & GUNTHER LN,95404.0,38.47250672,-122.71009380000001
242122,SANTA ROSA,STONY POINT RD & TROMBETTA ST,95407.0,38.41683121,-122.7400594
242123,SANTA ROSA,PAXTON PL & YORKTON WAY,95404.0,38.48489405,-122.69096040000001
242124,SANTA ROSA,GRANT WAY & KYLIE LN,95409.0,38.45838942,-122.67734990000001
242125,SANTA ROSA,HWY 12 & MELITA RD,95409.0,38.46482899,-122.65142639999999
242126,SANTA ROSA,BAY VILLAGE AVE & MONET ST,95403.0,38.46562342,-122.7529239
242127,SANTA ROSA,SANTA ROSA AVE & SR MARKETPLACE,95407.0,38.41861552,-122.71351829999999
242128,SANTA ROSA,MEYERS DR & YOUNG DR,95403.0,38.46148983,-122.7228629
242129,SANTA ROSA,SANTA ANA CIR & SANTA ANA DR,95404.0,38.42271933,-122.70576809999999
242130,SANTA ROSA,PAULIN DR & VENTURA AVE,95403.0,38.46720043,-122.72433079999999
242131,SANTA ROSA,COUNTRY MANOR DR & OLD COTTAGE WAY,95401.0,38.45406768,-122.7730892
242132,SANTA ROSA,BARHAM AVE & LOTUS CT,95404.0,38.42739284,-122.71183359999999
242133,SANTA ROSA,LAKE VIEW DR & YULUPA AVE,95405.0,38.42153429,-122.66453600000001
242134,SANTA ROSA,GREENEICH AVE & MARLOW RD & ZINFANDEL AVE,95401.0,38.45045002,-122.75132109999998
242135,SANTA ROSA,ADMINISTRATION DR & COUNTY CENTER DR,95403.0,38.46415311,-122.7258716
242136,SANTA ROSA,SANTA ROSA CREEK TRL & STONY POINT RD,95401.0,38.43860671,-122.74301200000001
242137,SANTA ROSA,E HAVEN DR & ELEANOR AVE,95404.0,38.45309988,-122.69251829999999
242138,SANTA ROSA,BROOKWOOD AVE & SONOMA AVE,95404.0,38.44036347,-122.70283090000001
242139,SANTA ROSA,BROOKWOOD AVE & SONOMA AVE,95404.0,38.44036347,-122.70283090000001
242140,SANTA ROSA,CLEVELAND AVE & EDWARDS AVE,95401.0,38.45576138,-122.7264186
242141,SANTA ROSA,4TH ST & WILSON ST,95401.0,38.43742039,-122.7207013
242142,SANTA ROSA,GOLDFIELD LN & PINERCREST DR & PIONEER WAY,95403.0,38.46954965,-122.7596794
242143,SANTA ROSA,PAULIN DR & VENTURA AVE,95403.0,38.46720043,-122.72433079999999
242144,SANTA ROSA,SANTA ROSA AVE & SONOMA AVE,95404.0,38.43665196,-122.71227809999999
242145,SANTA ROSA,4TH ST & CHINN ST,95404.0,38.44379613,-122.706748
242146,SANTA ROSA,E TODD RD & SANTA ROSA AVE & TODD RD,95407.0,38.38707619,-122.7135918
242147,SANTA ROSA,HEARN AVE & STONY POINT RD & W HEARN AVE,95407.0,38.41211271,-122.74136740000002
242148,SANTA ROSA,BROOKWOOD AVE & SONOMA AVE,95404.0,38.44036347,-122.70283090000001
242149,SANTA ROSA,LEWIS RD & LOMITAS AVE,95404.0,38.46121774,-122.71653300000001
242150,SANTA ROSA,BAKER AVE & COLGAN AVE & SANTA ROSA AVE,95404.0,38.42120417,-122.71350090000001
242151,SANTA ROSA,HWY 12 & MIDDLE RINCON RD,95409.0,38.46383244,-122.6649856
242152,SANTA ROSA,BRUSH CREEK RD & HEIMBUCHER WAY,95404.0,38.47205836,-122.68013529999999
242153,SANTA ROSA,NB YOLANDA AV OFFRAMP & NB YOLANDA AV ONRAMP & SANTA ROSA AVE & YOLANDA AVE,95407.0,38.413219700000006,-122.7135365
242154,SANTA ROSA,TESCONI CIR & TESCONI CT,95401.0,38.44786278,-122.7349648
242155,SANTA ROSA,BROOKWOOD AVE & STEVENSON ST,95404.0,38.43609171,-122.70061640000002
242156,SANTA ROSA,SEBASTOPOL RD & STONY POINT RD,95407.0,38.42685471,-122.7413163
242157,SANTA ROSA,MILTON ST & RUTLEDGE AVE,95404.0,38.42617327,-122.70806259999999
242158,SANTA ROSA,HAHMAN DR & MIDWAY DR,95405.0,38.44635696,-122.68615
242159,SANTA ROSA,BROOKWOOD AVE & MAPLE AVE & WB BROOKWOOD AV OFFRAMP,95404.0,38.4339454,-122.69939879999998
242160,SANTA ROSA,MONTGOMERY DR & SOTOYOME ST,95405.0,38.44285521,-122.7017068
242161,SANTA ROSA,COLLEGE AVE & E ST & KING ST,95404.0,38.44546397,-122.71089909999999
242162,SANTA ROSA,WIMBLEDON CT & WIMBLEDON PL,95401.0,38.43477608,-122.736604
242163,SANTA ROSA,BROOKWOOD AVE & SONOMA AVE,95404.0,38.44036347,-122.70283090000001
242164,SANTA ROSA,SEBASTOPOL RD & WEST AVE,95407.0,38.42978491,-122.72890819999999
242165,SANTA ROSA,SUMMERFIELD RD & SUMNER LN & WYOMING DR,95405.0,38.44508468,-122.66430929999999
242166,SANTA ROSA,GLENBROOK DR & STONY POINT RD,95401.0,38.437332299999994,-122.74285379999999
242167,SANTA ROSA,FLOWER AVE & SANTA ROSA AVE,95404.0,38.42426474,-122.7135061
242168,SANTA ROSA,FOUNTAINGROVE PKWY & MENDOCINO AVE & MENDOCINO OV,95403.0,38.47471494,-122.7286683
242169,SANTA ROSA,LEWIS RD & MENDOCINO AVE & STEELE LN,95403.0,38.46101229,-122.71717120000001
242170,SANTA ROSA,FOUNTAINGROVE PKWY & HADLEY HILL DR,95404.0,38.47913801,-122.6891551
242171,SANTA ROSA,FISCAL DR & PAULIN DR,95403.0,38.46545044,-122.7224179
242172,SANTA ROSA,ERIC CT & JASON DR,95405.0,38.42822726,-122.66168200000001
242173,SANTA ROSA,FULTON RD & PINER HIGH SCHOOL,95403.0,38.46172539,-122.7696703
242174,SANTA ROSA,APACHE ST & MOHAWK CT & MOHAWK ST,95403.0,38.46210603,-122.74463030000001
242175,SANTA ROSA,BELLEVUE AVE & CORBY AVE,95407.0,38.40195457,-122.71710420000001
242176,SANTA ROSA,BAKER AVE & COLGAN AVE & SANTA ROSA AVE,95404.0,38.42120417,-122.71350090000001
242177,SANTA ROSA,CENTRAL AVE & FRANCES ST,95401.0,38.45029207,-122.7276695
242178,SANTA ROSA,COLLEGE AVE & MENDOCINO AVE,95401.0,38.44564739,-122.7177125
242179,SANTA ROSA,SURREY DR & W 3RD ST,95401.0,38.43345496,-122.7373725
242180,SANTA ROSA,GUAYMAS CT & GUAYMAS ST & N DUTTON AVE,95401.0,38.45348497,-122.73606979999998
242181,SANTA ROSA,COLGAN AVE & PETALUMA HILL RD,95404.0,38.42291731,-122.70760179999999
242182,SANTA ROSA,BICENTENNIAL WAY & THE OVERLOOK,95403.0,38.47173676,-122.72091370000001
242183,SANTA ROSA,BELLEVUE AVE & MOORLAND AVE,95407.0,38.40184435,-122.7185419
242184,SANTA ROSA,ADMINISTRATION DR & CHANATE RD & MENDOCINO AVE,95403.0,38.46505778,-122.71938200000001
242185,SANTA ROSA,MCMINN AVE & ROSELAND AVE & SEBASTOPOL RD,95407.0,38.42894733,-122.73236999999999
242186,SANTA ROSA,8TH ST & B ST,95401.0,38.44260421,-122.71777730000001
242187,SANTA ROSA,HUGHES AVE & MCMINN AVE,95407.0,38.42568262,-122.7319736
242188,SANTA ROSA,BREEZE WAY & TOKAY ST,95404.0,38.42071863,-122.7044997
242189,SANTA ROSA,CARRILLO ST & MENDOCINO AVE,95401.0,38.44668339,-122.7177146
242190,SANTA ROSA,MARLOW CT & MARLOW RD & W STEELE LN,95403.0,38.45977767,-122.75119640000001
242191,SANTA ROSA,FARMERS LN & NEOTOMAS AVE,95405.0,38.43402241,-122.68804750000001
242192,SANTA ROSA,HWY 12 & MELITA RD,95409.0,38.45594683,-122.62796540000001
242193,SANTA ROSA,KENMORE LN & SEBASTOPOL RD,95407.0,38.42674234,-122.7430645
242194,SANTA ROSA,ADMINISTRATION DR & CHANATE RD & MENDOCINO AVE,95403.0,38.46505778,-122.71938200000001
242195,SANTA ROSA,FOUNTAINGROVE PKWY & STAGECOACH RD,95403.0,38.48614335,-122.71096899999999
242196,SANTA ROSA,6TH ST & MORGAN ST & NB SR DOWNTOWN ONRAMP,95401.0,38.43992913,-122.7193773
242197,SANTA ROSA,PACIFIC AVE & SLATER ST,95404.0,38.45332356,-122.71574790000001
242198,SANTA ROSA,COUNTY CENTER DR & PROFESSIONAL DR,95403.0,38.460974,-122.72521499999999
242199,SANTA ROSA,CONCORD AVE & S WRIGHT RD,95407.0,38.41103032,-122.76885929999999
242200,SANTA ROSA,MONTGOMERY DR & SHADOW LN & SUMMERFIELD RD,95405.0,38.45496838,-122.6721729
242201,SANTA ROSA,FOUNTAINGROVE PKWY & STAGECOACH RD,95403.0,38.48614335,-122.71096899999999
242202,SANTA ROSA,N DUTTON AVE & W 9TH ST,95401.0,38.44161484,-122.7289686
242203,SANTA ROSA,MISSION BLVD & SHERBROOK DR,95409.0,38.46324508,-122.6758038
242204,SANTA ROSA,TARA DR & W BARHAM AVE,95407.0,38.42610469,-122.72283909999999
242205,SANTA ROSA,FARMERS LN & LONG DR,95405.0,38.45029799,-122.68860159999998
242206,SANTA ROSA,GLENN ST & RIDGWAY AVE,95401.0,38.449765500000005,-122.7202701
242207,SANTA ROSA,CLARK ST & S E ST,95404.0,38.43698542,-122.70643600000001
242208,SANTA ROSA,TRACKS & W STEELE LN,95403.0,38.45997829,-122.7406116
242209,SANTA ROSA,SB STEELE LN OFFRAMP & SB STEELE LN ONRAMP & STEELE LN & W STEELE LN,95403.0,38.45993819,-122.7267705
242210,SANTA ROSA,6TH ST & MORGAN ST & NB SR DOWNTOWN ONRAMP,95401.0,38.43992913,-122.7193773
242211,SANTA ROSA,4TH ST & WILSON ST,95401.0,38.43742039,-122.7207013
242212,SANTA ROSA,COUNTY CENTER DR & PROFESSIONAL DR,95403.0,38.460974,-122.72521499999999
242213,SANTA ROSA,KOWELL RD & W COLLEGE AVE,95401.0,38.44530267,-122.7426611
242214,SANTA ROSA,BARHAM AVE & PETALUMA HILL RD & PRESSLEY ST,95404.0,38.42762049,-122.7103777
242215,SANTA ROSA,COUNTY CENTER DR & PROFESSIONAL DR,95403.0,38.46204646,-122.7256189
242216,SANTA ROSA,STONY CIR & STONY POINT RD,95401.0,38.4410492,-122.74599740000002
242217,SANTA ROSA,FARMERS LN & MIDWAY DR,95405.0,38.4458612,-122.68794270000001
242218,SANTA ROSA,FOUNTAINGROVE PKWY & THOMAS LAKE HARRIS DR,95403.0,38.48568511,-122.71461029999999
242219,SANTA ROSA,MCBRIDE LN & W STEELE LN,95403.0,38.45998549,-122.7302449
242220,SANTA ROSA,HENDLEY ST & S E ST,95404.0,38.43164326,-122.7053655
242221,SANTA ROSA,STONEHEDGE DR & SUMMERFIELD RD,95405.0,38.44160038,-122.66174029999999
242222,SANTA ROSA,BANYAN ST & DOGWOOD DR,95403.0,38.47808314,-122.7435121
242223,SANTA ROSA,MARLOW RD & STONY POINT RD & W COLLEGE AVE,95401.0,38.4452399,-122.75130279999999
242224,SANTA ROSA,COLGAN AVE & FERDINAND CT,95404.0,38.42228018,-122.7094669
242225,SANTA ROSA,5TH ST & RILEY ST,95404.0,38.4414286,-122.71379180000001
242226,SANTA ROSA,CLARE AVE & NONIE ST,95403.0,38.47293712,-122.7344301
242227,SANTA ROSA,SB STEELE LN OFFRAMP & SB STEELE LN ONRAMP & STEELE LN & W STEELE LN,95403.0,38.45993819,-122.7267705
242228,SANTA ROSA,BARNETT ST & OLIVE ST,95407.0,38.43033883,-122.7175395
242229,SANTA ROSA,CLEVELAND AVE & CODDINGTOWN,95401.0,38.45760065,-122.7266173
242230,SANTA ROSA,HARVEST LN & W 3RD ST,95401.0,38.43436204,-122.74808909999999
242231,SANTA ROSA,6TH ST & WILSON ST,95401.0,38.43876378,-122.7216926
242232,SANTA ROSA,PRINCE ST & W 8TH ST,95401.0,38.43947287,-122.72536459999999
242233,SANTA ROSA,CLEVELAND AVE & GUERNEVILLE RD & W STEELE LN,95401.0,38.45991177,-122.7284087
242234,SANTA ROSA,3RD ST & TRACKS & W 3RD ST,95401.0,38.436027,-122.721355
242235,SANTA ROSA,COLLEGE AVE & MENDOCINO AVE,95401.0,38.44564739,-122.7177125
242236,SANTA ROSA,ASTON AVE & HENDLEY ST,95404.0,38.42585217,-122.7024686
242237,SANTA ROSA,SEBASTOPOL RD & WEST AVE,95407.0,38.42978491,-122.72890819999999
242238,SANTA ROSA,PARKCREEK DR & SUMMERCREEK DR,95404.0,38.41193139,-122.70786070000001
242239,SANTA ROSA,BROOKWOOD AVE & SONOMA AVE,95404.0,38.44036347,-122.70283090000001
242240,SANTA ROSA,SANTA ROSA AVE & WHEELER ST,95404.0,38.43460978,-122.71191840000002
242241,SANTA ROSA,4TH ST & D ST,95404.0,38.44121202,-122.7123828
242242,SANTA ROSA,B ST & LINCOLN ST,95401.0,38.44522915,-122.71871850000001
242243,SANTA ROSA,DUTTON AVE & HEARN AVE,95407.0,38.41433572,-122.7234498
242244,SANTA ROSA,HARVEST LN & OCCIDENTAL RD,95401.0,38.42992011,-122.7476531
242245,SANTA ROSA,AIRWAY CT & AIRWAY DR,95403.0,38.47455094,-122.7381111
242246,SANTA ROSA,JOLON CT & PHYLLIS ST,95401.0,38.45247367,-122.74091170000001
242247,SANTA ROSA,HARVEST LN & OCCIDENTAL RD,95401.0,38.42992011,-122.7476531
242248,SANTA ROSA,CHANATE RD & MONTECITO AVE,95404.0,38.47309907,-122.6875378
242249,SANTA ROSA,OLDFIELD WAY & WALL PL,95401.0,38.43294769,-122.7445656
242250,SANTA ROSA,4TH ST & D ST,95404.0,38.44121202,-122.7123828
242251,SANTA ROSA,EB STONY POINT RD ONRAMP & STONY POINT RD,95407.0,38.42984924,-122.74171740000001
242252,SANTA ROSA,ALTRURIA DR & BELLA VISTA WAY,95403.0,38.47612229,-122.71789609999999
242253,SANTA ROSA,COFFEY LN & PINER RD,95403.0,38.46873386,-122.74485390000001
242254,SANTA ROSA,MONTGOMERY DR & SOTOYOME ST,95405.0,38.44285521,-122.7017068
242255,SANTA ROSA,TESCONI CIR & TESCONI CT,95401.0,38.44786278,-122.7349648
242256,SANTA ROSA,BAY MEADOW DR & PINER RD,95403.0,38.46713873,-122.75460690000001
242257,SANTA ROSA,MCBRIDE LN & W STEELE LN,95403.0,38.45998549,-122.7302449
242258,SANTA ROSA,4TH ST & FARMERS LN & HWY 12,95405.0,38.44972,-122.68848009999999
242259,SANTA ROSA,BAKER AVE & COLGAN AVE & SANTA ROSA AVE,95404.0,38.42120417,-122.71350090000001
242260,SANTA ROSA,GUAYMAS CT & GUAYMAS ST & N DUTTON AVE,95401.0,38.45348497,-122.73606979999998
242261,SANTA ROSA,KAREN WAY & VALLEJO ST,95404.0,38.4384119,-122.6968065
242262,SANTA ROSA,COURT ST & ELSA DR,95407.0,38.40537639,-122.71188290000002
242263,SANTA ROSA,4TH ST & D ST,95404.0,38.44121202,-122.7123828
242264,SANTA ROSA,CUNNINGHAM WAY & FAIRBANKS DR,95403.0,38.45369745,-122.7606875
242265,SANTA ROSA,DE TURK AVE & MILTON ST,95404.0,38.42706919,-122.7055725
242266,SANTA ROSA,4TH ST & E ST,95404.0,38.4419527,-122.7107402
242267,SANTA ROSA,CLEAR RDG & LEETE AVE,95404.0,38.48174469,-122.70271480000001
242268,SANTA ROSA,S A ST & SONOMA AVE,95401.0,38.43587467,-122.71551409999998
242269,SANTA ROSA,CLOVER DR & W COLLEGE AVE,95401.0,38.44540732,-122.7394594
242270,SANTA ROSA,MISSION BLVD & MISSION CIR & QUIGG DR,95409.0,38.45803531,-122.6729237
242271,SANTA ROSA,SARACEN RD & W 9TH ST,95401.0,38.44165364,-122.7306304
242272,SANTA ROSA,5TH ST & B ST,95401.0,38.44038228,-122.7161508
242273,SANTA ROSA,HEWETT ST & MADISON ST,95401.0,38.43860065,-122.7262751
242274,SANTA ROSA,DUTTON AVE & FREITAS CT,95407.0,38.42764531,-122.72495900000001
242275,SANTA ROSA,LEONARD AVE & SHORTT RD,95405.0,38.44785251,-122.6923025
242276,SANTA ROSA,BURBANK CIR & ELLIOTT AVE,95401.0,38.45758929,-122.7178531
242277,SANTA ROSA,RANGE AVE & W STEELE LN,95403.0,38.45997358,-122.73261799999999
242278,SANTA ROSA,4TH ST & FARMERS LN & HWY 12,95405.0,38.44972,-122.68848009999999
242279,SANTA ROSA,BROOKWOOD AVE & SONOMA AVE,95404.0,38.44036347,-122.70283090000001
242280,SANTA ROSA,GUERNEVILLE RD & RANGE AVE,95401.0,38.45884356,-122.7326085
242281,SANTA ROSA,CLARK ST & S E ST,95404.0,38.43698542,-122.70643600000001
242282,SANTA ROSA,BAKER AVE & NB BAKER AV OFFRAMP & NB BAKER AV ONRAMP,95407.0,38.42135934,-122.7147642
242283,SANTA ROSA,FORSE LN & HAVITUR WAY,95404.0,38.41840805,-122.6918281
242284,SANTA ROSA,LEWIS RD & LOMITAS AVE,95404.0,38.46121774,-122.71653300000001
242285,SANTA ROSA,FORSE LN & HAVITUR WAY,95404.0,38.41840805,-122.6918281
242286,SANTA ROSA,BROOKWOOD AVE & SONOMA AVE,95404.0,38.44036347,-122.70283090000001
242287,SANTA ROSA,1ST ST & B ST,95401.0,38.43776285,-122.7142084
242288,SANTA ROSA,ASTON AVE & ASTON CIR,95404.0,38.42555317,-122.7033124
242289,SANTA ROSA,KAWANA SPRINGS RD & MEADOW WAY,95404.0,38.41646107,-122.70881059999999
242290,SANTA ROSA,SB STEELE LN OFFRAMP & SB STEELE LN ONRAMP & STEELE LN & W STEELE LN,95403.0,38.45993819,-122.7267705
242291,SANTA ROSA,NORTHCOAST ST & TOLAR AVE,95403.0,38.4565141,-122.7411455
242292,SANTA ROSA,5TH ST & DAVIS ST,95401.0,38.43862443,-122.71994099999999
242293,SANTA ROSA,5TH ST & ORCHARD ST,95404.0,38.44206222,-122.71239409999998
242294,SANTA ROSA,BAKER AVE & NB BAKER AV OFFRAMP & NB BAKER AV ONRAMP,95407.0,38.42135934,-122.7147642
242295,SANTA ROSA,HWY 12 & PROSPECT AVE,95409.0,38.45969611,-122.67267859999998
242296,SANTA ROSA,GUERNEVILLE RD & N DUTTON AVE & WESTBERRY DR,95401.0,38.45546474,-122.7379425
242297,SANTA ROSA,KAWANA TER & MEDA AVE,95404.0,38.41648379,-122.6977423
242298,SANTA ROSA,3RD ST & D ST,95404.0,38.44039704,-122.7117999
242299,SANTA ROSA,STANHOPE CT & WEDGEWOOD WAY,95404.0,38.49079736,-122.7009265
242300,SANTA ROSA,CLEMENT AVE & MENDOCINO AVE,95401.0,38.45909335,-122.71717520000001
242301,SANTA ROSA,COLLEGE AVE & GLENN ST,95401.0,38.44572374,-122.72041010000001
242302,SANTA ROSA,GUERNEVILLE RD & RIDLEY AVE,95401.0,38.45259224,-122.74625209999999
242303,SANTA ROSA,CARRILLO ST & CLEVELAND AVE,95401.0,38.44691519,-122.72659569999999
242304,SANTA ROSA,JENNINGS AVE & RANGE AVE,95401.0,38.452966499999995,-122.731721
242305,SANTA ROSA,BROOKWOOD AVE & SONOMA AVE,95404.0,38.44036347,-122.70283090000001
242306,SANTA ROSA,CLAREMONT DR & HAHMAN DR,95405.0,38.44441439,-122.68544709999999
242307,SANTA ROSA,DAWSON RD & MENDOCINO AVE,95403.0,38.47297747,-122.72614070000002
242308,SANTA ROSA,5TH ST & MORGAN ST,95401.0,38.439145399999994,-122.7188437
242309,SANTA ROSA,TRACKS & W STEELE LN,95403.0,38.45997829,-122.7406116
242310,SANTA ROSA,BRIDLE TRL & MONTGOMERY LN,95409.0,38.46001009,-122.66281969999999
242311,SANTA ROSA,BROOKWOOD AVE & SONOMA AVE,95404.0,38.44036347,-122.70283090000001
242312,SANTA ROSA,BROOKWOOD AVE & STEVENSON ST,95404.0,38.43609171,-122.70061640000002
242313,SANTA ROSA,MORGAN ST & WASHINGTON ST,95401.0,38.44274724,-122.72123329999998
242314,SANTA ROSA,COUNTRYSIDE DR & EQUINE PL,95401.0,38.43150165,-122.7705341
242315,SANTA ROSA,COMALLI ST & LAZZINI AVE,95407.0,38.42243235,-122.7366743
242316,SANTA ROSA,6TH ST & DAVIS ST,95401.0,38.43932824,-122.72045349999999
242317,SANTA ROSA,BRIDLE TRL & MONTGOMERY LN,95409.0,38.46001009,-122.66281969999999
242318,SANTA ROSA,CACTUS AVE & YUCCA ST,95405.0,38.42546158,-122.6692824
242319,SANTA ROSA,DUTTON AVE & FREITAS CT,95407.0,38.42764531,-122.72495900000001
242320,SANTA ROSA,3RD ST & MORGAN ST & NB SR DOWNTOWN OFFRAMP,95401.0,38.43769345,-122.71779679999999
242321,SANTA ROSA,2ND ST & E ST,95404.0,38.44053199,-122.70968880000001
242322,SANTA ROSA,CRIMSON LN & KERRY LN,95403.0,38.47979384,-122.7552378
242323,SANTA ROSA,SANTIAGO DR & SHELBOURNE WAY,95403.0,38.47678154,-122.7521547
242324,SANTA ROSA,RICHMOND DR & SALEM AVE,95401.0,38.45956577,-122.7190646
242325,SANTA ROSA,ESTRELLA DR & JACARANDA CT,95403.0,38.4640649,-122.737472
242326,SANTA ROSA,BROOKWOOD AVE & SONOMA AVE,95404.0,38.44036347,-122.70283090000001
242327,SANTA ROSA,6TH ST & DAVIS ST,95401.0,38.43932824,-122.72045349999999
242328,SANTA ROSA,LEISURE PARK CIR & OCCIDENTAL RD,95401.0,38.42973908,-122.7500199
242329,SANTA ROSA,BROOKWOOD AVE & SONOMA AVE,95404.0,38.44036347,-122.70283090000001
242330,SANTA ROSA,KENMORE LN & SEBASTOPOL RD,95407.0,38.42674234,-122.7430645
242331,SANTA ROSA,CUMBERLAND ST & MOJAVE AVE,95407.0,38.40371518,-122.72749820000001
242332,SANTA ROSA,MORTON WAY & SOLANO DR,95404.0,38.43693601,-122.6943395
242333,SANTA ROSA,SANTA ROSA AVE & SR MARKETPLACE,95407.0,38.41861552,-122.71351829999999
242334,SANTA ROSA,6TH ST & DAVIS ST,95401.0,38.43932824,-122.72045349999999
242335,SANTA ROSA,BANYAN PL & HOPPER AVE & SKYVIEW DR,95403.0,38.47971264,-122.74219690000001
242336,SANTA ROSA,PLATA CT & SUNLEAF LN,95403.0,38.45812259,-122.7358441
242337,SANTA ROSA,AARON DR & LEETE AVE,95404.0,38.48173168,-122.70329579999999
242338,SANTA ROSA,4TH ST & CHINN ST,95404.0,38.44379613,-122.706748
242339,SANTA ROSA,PENNYROYAL LN & VELVETLEAF LN,95404.0,38.42623115,-122.69114579999999
242340,SANTA ROSA,OCCIDENTAL RD & STONY POINT RD & WB STONY POINT RD OFFRAMP & WB STONY POINT RD ONRAMP,95401.0,38.43182581,-122.7419237
242341,SANTA ROSA,FULTON PL & FULTON RD & SEVEN GABLES DR,95401.0,38.44751446,-122.7696459
